{
  "schools": {
    "school": [
      {
        "gsId": "1207",
        "name": "Academia Antonia Alonso",
        "type": "charter",
        "gradeRange": "K-2",
        "enrollment": "320",
        "city": "Wilmington",
        "state": "DE",
        "address": "1200 North French Street, 
Wilmington, DE  19801",
        "phone": "(302) 660-3743",
        "fax": "(302) 660-4764",
        "website": "www.academiacharter.com/",
        "lat": "39.74665",
        "lon": "-75.544624",
        "overviewLink": "https://www.greatschools.org/delaware/wilmington/1207-Academia-Antonia-Alonso/?s_cid=gsapi",
        "ratingsLink": "https://www.greatschools.org/school/rating.page?state=DE&id=1207&s_cid=gsapi",
        "reviewsLink": "https://www.greatschools.org/school/parentReviews.page?state=DE&id=1207&s_cid=gsapi",
        "schoolStatsLink": "https://www.greatschools.org/modperl/achievement/DE/1207"
      },
      {
        "gsId": "233",
        "name": "Albert Einstein Academy",
        "type": "private",
        "gradeRange": "K-6",
        "enrollment": "33",
        "parentRating": "5",
        "city": "Wilmington",
        "state": "DE",
        "address": "101 Garden of Eden Road, 
Wilmington, DE  19803",
        "phone": "(302) 478-5026",
        "fax": "(302) 478-0664",
        "website": "einsteinday.org",
        "ncesId": "00249817",
        "lat": "39.811047",
        "lon": "-75.55468",
        "overviewLink": "https://www.greatschools.org/delaware/wilmington/233-Albert-Einstein-Academy/?s_cid=gsapi",
        "ratingsLink": "https://www.greatschools.org/school/rating.page?state=DE&id=233&s_cid=gsapi",
        "reviewsLink": "https://www.greatschools.org/school/parentReviews.page?state=DE&id=233&s_cid=gsapi",
        "schoolStatsLink": "https://www.greatschools.org/cgi-bin/DE/otherprivate/233"
      },
      {
        "gsId": "209",
        "name": "All Saints Catholic School",
        "type": "private",
        "gradeRange": "PK-8",
        "enrollment": "415",
        "parentRating": "5",
        "city": "Wilmington",
        "state": "DE",
        "address": "907 New Road, 
Wilmington, DE  19805",
        "phone": "(302) 995-2231",
        "fax": "(302) 993-0767",
        "website": "www.ascsde.org",
        "ncesId": "00249464",
        "lat": "39.739708",
        "lon": "-75.59734",
        "overviewLink": "https://www.greatschools.org/delaware/wilmington/209-All-Saints-Catholic-School/?s_cid=gsapi",
        "ratingsLink": "https://www.greatschools.org/school/rating.page?state=DE&id=209&s_cid=gsapi",
        "reviewsLink": "https://www.greatschools.org/school/parentReviews.page?state=DE&id=209&s_cid=gsapi",
        "schoolStatsLink": "https://www.greatschools.org/cgi-bin/DE/otherprivate/209"
      },
      {
        "gsId": "994",
        "name": "Alternative School",
        "type": "private",
        "gradeRange": "9-10",
        "city": "Wilmington",
        "state": "DE",
        "address": "2223 N Market St, 
Wilmington, DE  19802",
        "ncesId": "A0900699",
        "lat": "39.753334",
        "lon": "-75.53948",
        "overviewLink": "https://www.greatschools.org/delaware/wilmington/994-Alternative-School/?s_cid=gsapi",
        "ratingsLink": "https://www.greatschools.org/school/rating.page?state=DE&id=994&s_cid=gsapi",
        "reviewsLink": "https://www.greatschools.org/school/parentReviews.page?state=DE&id=994&s_cid=gsapi",
        "schoolStatsLink": "https://www.greatschools.org/cgi-bin/DE/otherprivate/994"
      },
      {
        "gsId": "946",
        "name": "Back To Basics Private School",
        "type": "private",
        "gradeRange": "K-12",
        "enrollment": "10",
        "parentRating": "5",
        "city": "Wilmington",
        "state": "DE",
        "address": "6 Stone Hill Rd, 
Wilmington, DE  19803",
        "phone": "(302) 594-0754",
        "fax": "(302) 421-9479",
        "website": "http://www.backtobasicsprivateschool.com",
        "ncesId": "BB080427",
        "lat": "39.762577",
        "lon": "-75.55164",
        "overviewLink": "https://www.greatschools.org/delaware/wilmington/946-Back-To-Basics-Private-School/?s_cid=gsapi",
        "ratingsLink": "https://www.greatschools.org/school/rating.page?state=DE&id=946&s_cid=gsapi",
        "reviewsLink": "https://www.greatschools.org/school/parentReviews.page?state=DE&id=946&s_cid=gsapi",
        "schoolStatsLink": "https://www.greatschools.org/cgi-bin/DE/otherprivate/946"
      },
      {
        "gsId": "166",
        "name": "Baltz (Austin D.) Elementary School",
        "type": "public",
        "gradeRange": "K-5",
        "enrollment": "520",
        "gsRating": "1",
        "parentRating": "3",
        "city": "Wilmington",
        "state": "DE",
        "districtId": "22",
        "district": "Red Clay Consolidated School District",
        "districtNCESId": "1001300",
        "address": "1500 Spruce Avenue, 
Wilmington, DE  19805",
        "phone": "(302) 992-5560",
        "fax": "(302) 992-5518",
        "website": "www.edline.net/pages/RCBaltz",
        "ncesId": "100130000264",
        "lat": "39.743484",
        "lon": "-75.59923",
        "overviewLink": "https://www.greatschools.org/delaware/wilmington/166-Baltz-(Austin-D.)-Elementary-School/?s_cid=gsapi",
        "ratingsLink": "https://www.greatschools.org/school/rating.page?state=DE&id=166&s_cid=gsapi",
        "reviewsLink": "https://www.greatschools.org/school/parentReviews.page?state=DE&id=166&s_cid=gsapi",
        "schoolStatsLink": "https://www.greatschools.org/modperl/achievement/DE/166"
      },
      {
        "gsId": "61",
        "name": "Bancroft Elementary School",
        "type": "public",
        "gradeRange": "K-5",
        "enrollment": "338",
        "parentRating": "2",
        "city": "Wilmington",
        "state": "DE",
        "districtId": "12",
        "district": "Christina School District",
        "districtNCESId": "1000200",
        "address": "700 North Lombard Street, 
Wilmington, DE  19801",
        "phone": "(302) 429-4102",
        "fax": "(302) 429-3956",
        "website": "www.bancroftes.org",
        "ncesId": "100020000233",
        "lat": "39.74073",
        "lon": "-75.54392",
        "overviewLink": "https://www.greatschools.org/delaware/wilmington/61-Bancroft-Elementary-School/?s_cid=gsapi",
        "ratingsLink": "https://www.greatschools.org/school/rating.page?state=DE&id=61&s_cid=gsapi",
        "reviewsLink": "https://www.greatschools.org/school/parentReviews.page?state=DE&id=61&s_cid=gsapi",
        "schoolStatsLink": "https://www.greatschools.org/modperl/achievement/DE/61"
      },
      {
        "gsId": "60",
        "name": "Bayard Middle School",
        "type": "public",
        "gradeRange": "6-8",
        "enrollment": "416",
        "parentRating": "3",
        "city": "Wilmington",
        "state": "DE",
        "districtId": "12",
        "district": "Christina School District",
        "districtNCESId": "1000200",
        "address": "200 South Dupont Street, 
Wilmington, DE  19805",
        "phone": "(302) 429-4118",
        "fax": "(302) 429-4153",
        "website": "www.bayardms.org",
        "ncesId": "100020000232",
        "lat": "39.74355",
        "lon": "-75.57159",
        "overviewLink": "https://www.greatschools.org/delaware/wilmington/60-Bayard-Middle-School/?s_cid=gsapi",
        "ratingsLink": "https://www.greatschools.org/school/rating.page?state=DE&id=60&s_cid=gsapi",
        "reviewsLink": "https://www.greatschools.org/school/parentReviews.page?state=DE&id=60&s_cid=gsapi",
        "schoolStatsLink": "https://www.greatschools.org/modperl/achievement/DE/60"
      },
      {
        "gsId": "1184",
        "name": "Beacon Of Hope Christian Academy",
        "type": "private",
        "gradeRange": "PK-2",
        "city": "Wilmington",
        "state": "DE",
        "address": "4003 North Market Street, 
Wilmington, DE  19802",
        "phone": "(302) 764-7162",
        "ncesId": "A1100469",
        "lat": "39.760418",
        "lon": "-75.52282",
        "overviewLink": "https://www.greatschools.org/delaware/wilmington/1184-Beacon-Of-Hope-Christian-Academy/?s_cid=gsapi",
        "ratingsLink": "https://www.greatschools.org/school/rating.page?state=DE&id=1184&s_cid=gsapi",
        "reviewsLink": "https://www.greatschools.org/school/parentReviews.page?state=DE&id=1184&s_cid=gsapi",
        "schoolStatsLink": "https://www.greatschools.org/cgi-bin/DE/otherprivate/1184"
      },
      {
        "gsId": "130",
        "name": "Brandywine High School",
        "type": "public",
        "gradeRange": "9-12",
        "enrollment": "824",
        "gsRating": "5",
        "parentRating": "4",
        "city": "Wilmington",
        "state": "DE",
        "districtId": "20",
        "district": "Brandywine School District",
        "districtNCESId": "1001240",
        "address": "1400 Foulk Road, 
Wilmington, DE  19803",
        "phone": "(302) 479-1600",
        "fax": "(302) 479-1604",
        "website": "www.brandywineschools.org/brandywine",
        "ncesId": "100124000242",
        "lat": "39.8001",
        "lon": "-75.52105",
        "overviewLink": "https://www.greatschools.org/delaware/wilmington/130-Brandywine-High-School/?s_cid=gsapi",
        "ratingsLink": "https://www.greatschools.org/school/rating.page?state=DE&id=130&s_cid=gsapi",
        "reviewsLink": "https://www.greatschools.org/school/parentReviews.page?state=DE&id=130&s_cid=gsapi",
        "schoolStatsLink": "https://www.greatschools.org/modperl/achievement/DE/130"
      },
      {
        "gsId": "310",
        "name": "Brandywine Springs School",
        "type": "public",
        "gradeRange": "K-8",
        "enrollment": "1105",
        "gsRating": "8",
        "parentRating": "4",
        "city": "Wilmington",
        "state": "DE",
        "districtId": "22",
        "district": "Red Clay Consolidated School District",
        "districtNCESId": "1001300",
        "address": "2916 Duncan Road, 
Wilmington, DE  19808",
        "phone": "(302) 636-5681",
        "fax": "(302) 636-5683",
        "website": "www.edline.net/pages/RCBrandywineSprings",
        "ncesId": "100130000104",
        "lat": "39.74317",
        "lon": "-75.65308",
        "overviewLink": "https://www.greatschools.org/delaware/wilmington/310-Brandywine-Springs-School/?s_cid=gsapi",
        "ratingsLink": "https://www.greatschools.org/school/rating.page?state=DE&id=310&s_cid=gsapi",
        "reviewsLink": "https://www.greatschools.org/school/parentReviews.page?state=DE&id=310&s_cid=gsapi",
        "schoolStatsLink": "https://www.greatschools.org/modperl/achievement/DE/310"
      },
      {
        "gsId": "154",
        "name": "Calloway (Cab) School of the Arts",
        "type": "public",
        "gradeRange": "6-12",
        "enrollment": "919",
        "gsRating": "8",
        "parentRating": "5",
        "city": "Wilmington",
        "state": "DE",
        "districtId": "22",
        "district": "Red Clay Consolidated School District",
        "districtNCESId": "1001300",
        "address": "100 North Dupont Road, 
Wilmington, DE  19807",
        "phone": "(302) 651-2700",
        "fax": "(302) 425-4594",
        "website": "www.cabcallowayschool.org",
        "ncesId": "100130000004",
        "lat": "39.75283",
        "lon": "-75.588326",
        "overviewLink": "https://www.greatschools.org/delaware/wilmington/154-Calloway-(Cab)-School-Of-The-Arts/?s_cid=gsapi",
        "ratingsLink": "https://www.greatschools.org/school/rating.page?state=DE&id=154&s_cid=gsapi",
        "reviewsLink": "https://www.greatschools.org/school/parentReviews.page?state=DE&id=154&s_cid=gsapi",
        "schoolStatsLink": "https://www.greatschools.org/modperl/achievement/DE/154"
      },
      {
        "gsId": "142",
        "name": "Carrcroft Elementary School",
        "type": "public",
        "gradeRange": "K-5",
        "enrollment": "521",
        "gsRating": "4",
        "city": "Wilmington",
        "state": "DE",
        "districtId": "20",
        "district": "Brandywine School District",
        "districtNCESId": "1001240",
        "address": "503 Crest Road Wilmington, 
Wilmington, DE  19803",
        "phone": "(302) 762-7165",
        "fax": "(302) 762-7106",
        "website": "www.brandywineschools.org/Domain/210",
        "ncesId": "100124000291",
        "lat": "39.78865",
        "lon": "-75.501595",
        "overviewLink": "https://www.greatschools.org/delaware/wilmington/142-Carrcroft-Elementary-School/?s_cid=gsapi",
        "ratingsLink": "https://www.greatschools.org/school/rating.page?state=DE&id=142&s_cid=gsapi",
        "reviewsLink": "https://www.greatschools.org/school/parentReviews.page?state=DE&id=142&s_cid=gsapi",
        "schoolStatsLink": "https://www.greatschools.org/modperl/achievement/DE/142"
      },
      {
        "gsId": "1",
        "name": "Charter School of Wilmington",
        "type": "charter",
        "gradeRange": "9-12",
        "enrollment": "972",
        "gsRating": "10",
        "parentRating": "5",
        "city": "Wilmington",
        "state": "DE",
        "districtId": "4",
        "district": "Charter School Of Wilmington",
        "districtNCESId": "1000004",
        "address": "100 North Dupont Road, 
Wilmington, DE  19807",
        "phone": "(302) 651-2727",
        "fax": "(302) 652-1246",
        "website": "www.charterschool.org",
        "ncesId": "100000400012",
        "lat": "39.753147",
        "lon": "-75.587944",
        "overviewLink": "https://www.greatschools.org/delaware/wilmington/1-Charter-School-Of-Wilmington/?s_cid=gsapi",
        "ratingsLink": "https://www.greatschools.org/school/rating.page?state=DE&id=1&s_cid=gsapi",
        "reviewsLink": "https://www.greatschools.org/school/parentReviews.page?state=DE&id=1&s_cid=gsapi",
        "schoolStatsLink": "https://www.greatschools.org/modperl/achievement/DE/1"
      },
      {
        "gsId": "393",
        "name": "City Gates Academy",
        "type": "private",
        "gradeRange": "4-8",
        "enrollment": "35",
        "city": "Wilmington",
        "state": "DE",
        "address": "Po Box 7581, 
Wilmington, DE  19803",
        "phone": "(302) 229-9626",
        "website": "http://www.cgade.org",
        "ncesId": "A0300720",
        "lat": "39.796127",
        "lon": "-75.539314",
        "overviewLink": "https://www.greatschools.org/delaware/wilmington/393-City-Gates-Academy/?s_cid=gsapi",
        "ratingsLink": "https://www.greatschools.org/school/rating.page?state=DE&id=393&s_cid=gsapi",
        "reviewsLink": "https://www.greatschools.org/school/parentReviews.page?state=DE&id=393&s_cid=gsapi",
        "schoolStatsLink": "https://www.greatschools.org/cgi-bin/DE/otherprivate/393"
      },
      {
        "gsId": "245",
        "name": "Concord Christian Academy",
        "type": "private",
        "gradeRange": "PK-12",
        "enrollment": "210",
        "parentRating": "4",
        "city": "Wilmington",
        "state": "DE",
        "address": "2510 Marsh Road, 
Wilmington, DE  19810",
        "phone": "(302) 475-3247",
        "fax": "(302) 475-6462",
        "website": "http://www.concordchristian.com",
        "ncesId": "00250061",
        "lat": "39.824608",
        "lon": "-75.48723",
        "overviewLink": "https://www.greatschools.org/delaware/wilmington/245-Concord-Christian-Academy/?s_cid=gsapi",
        "ratingsLink": "https://www.greatschools.org/school/rating.page?state=DE&id=245&s_cid=gsapi",
        "reviewsLink": "https://www.greatschools.org/school/parentReviews.page?state=DE&id=245&s_cid=gsapi",
        "schoolStatsLink": "https://www.greatschools.org/cgi-bin/DE/otherprivate/245"
      },
      {
        "gsId": "134",
        "name": "Concord High School",
        "type": "public",
        "gradeRange": "9-12",
        "enrollment": "1099",
        "gsRating": "6",
        "city": "Wilmington",
        "state": "DE",
        "districtId": "20",
        "district": "Brandywine School District",
        "districtNCESId": "1001240",
        "address": "2501 Ebright Road, 
Wilmington, DE  19810",
        "phone": "(302) 475-3951",
        "fax": "(302) 529-3094",
        "website": "www.brandywineschools.org/Domain/1211",
        "ncesId": "100124000247",
        "lat": "39.831196",
        "lon": "-75.5253",
        "overviewLink": "https://www.greatschools.org/delaware/wilmington/134-Concord-High-School/?s_cid=gsapi",
        "ratingsLink": "https://www.greatschools.org/school/rating.page?state=DE&id=134&s_cid=gsapi",
        "reviewsLink": "https://www.greatschools.org/school/parentReviews.page?state=DE&id=134&s_cid=gsapi",
        "schoolStatsLink": "https://www.greatschools.org/modperl/achievement/DE/134"
      },
      {
        "gsId": "171",
        "name": "Conrad Schools of Science",
        "type": "public",
        "gradeRange": "6-12",
        "enrollment": "1195",
        "gsRating": "9",
        "parentRating": "5",
        "city": "Wilmington",
        "state": "DE",
        "districtId": "22",
        "district": "Red Clay Consolidated School District",
        "districtNCESId": "1001300",
        "address": "201 Jackson Avenue, 
Wilmington, DE  19804",
        "phone": "(302) 992-5545",
        "fax": "(302) 992-5585",
        "website": "www.edline.net/pages/RCConrad",
        "ncesId": "100130000270",
        "lat": "39.72289",
        "lon": "-75.60121",
        "overviewLink": "https://www.greatschools.org/delaware/wilmington/171-Conrad-Schools-Of-Science/?s_cid=gsapi",
        "ratingsLink": "https://www.greatschools.org/school/rating.page?state=DE&id=171&s_cid=gsapi",
        "reviewsLink": "https://www.greatschools.org/school/parentReviews.page?state=DE&id=171&s_cid=gsapi",
        "schoolStatsLink": "https://www.greatschools.org/modperl/achievement/DE/171"
      },
      {
        "gsId": "989",
        "name": "Delaware Academy of Public Safety and Security",
        "type": "charter",
        "gradeRange": "9-12",
        "enrollment": "303",
        "city": "Wilmington Manor",
        "state": "DE",
        "districtId": "56",
        "district": "Delaware Academy Of Public Safety And Security",
        "districtNCESId": "1000049",
        "address": "801 North Dupont Highway, 
Wilmington Manor, DE  19720",
        "phone": "(302) 322-6050",
        "fax": "(302) 322-4029",
        "website": "www.dapsscharterschool.org",
        "ncesId": "100004900341",
        "lat": "39.68691",
        "lon": "-75.58567",
        "overviewLink": "https://www.greatschools.org/delaware/wilmington-manor/989-Delaware-Academy-Of-Public-Safety-And-Security/?s_cid=gsapi",
        "ratingsLink": "https://www.greatschools.org/school/rating.page?state=DE&id=989&s_cid=gsapi",
        "reviewsLink": "https://www.greatschools.org/school/parentReviews.page?state=DE&id=989&s_cid=gsapi",
        "schoolStatsLink": "https://www.greatschools.org/modperl/achievement/DE/989"
      },
      {
        "gsId": "974",
        "name": "Delaware College Preparatory Academy",
        "type": "charter",
        "gradeRange": "K-5",
        "enrollment": "186",
        "parentRating": "2",
        "city": "Wilmington",
        "state": "DE",
        "districtId": "50",
        "district": "Delaware College Preparatory Academy",
        "districtNCESId": "1000047",
        "address": "510 West 28th Street, 
Wilmington, DE  19802",
        "phone": "(302) 762-7424",
        "fax": "(302) 762-7426",
        "website": "www.dcpacademy.org/",
        "ncesId": "100004700336",
        "lat": "39.760162",
        "lon": "-75.53805",
        "overviewLink": "https://www.greatschools.org/delaware/wilmington/974-Delaware-College-Preparatory-Academy/?s_cid=gsapi",
        "ratingsLink": "https://www.greatschools.org/school/rating.page?state=DE&id=974&s_cid=gsapi",
        "reviewsLink": "https://www.greatschools.org/school/parentReviews.page?state=DE&id=974&s_cid=gsapi",
        "schoolStatsLink": "https://www.greatschools.org/modperl/achievement/DE/974"
      },
      {
        "gsId": "1206",
        "name": "Delaware Design-Lab High School",
        "type": "charter",
        "gradeRange": "9-10",
        "enrollment": "280",
        "city": "Wilmington",
        "state": "DE",
        "address": "179 Stanton Christiana Rd, 
Wilmington, DE  19801",
        "phone": "(302) 292-5450",
        "fax": "(302) 292-5457",
        "website": "design-labschools.org",
        "lat": "39.74186",
        "lon": "-75.550575",
        "overviewLink": "https://www.greatschools.org/delaware/wilmington/1206-Delaware-Design-Lab-High-School/?s_cid=gsapi",
        "ratingsLink": "https://www.greatschools.org/school/rating.page?state=DE&id=1206&s_cid=gsapi",
        "reviewsLink": "https://www.greatschools.org/school/parentReviews.page?state=DE&id=1206&s_cid=gsapi",
        "schoolStatsLink": "https://www.greatschools.org/modperl/achievement/DE/1206"
      },
      {
        "gsId": "442",
        "name": "Delaware Education Reclamation",
        "type": "private",
        "gradeRange": "9-12",
        "city": "Wilmington",
        "state": "DE",
        "address": "302 W 37th St, 
Wilmington, DE  19802",
        "phone": "(302) 762-2312",
        "ncesId": "A0500892",
        "lat": "39.76263",
        "lon": "-75.52841",
        "overviewLink": "https://www.greatschools.org/delaware/wilmington/442-Delaware-Education-Reclamation/?s_cid=gsapi",
        "ratingsLink": "https://www.greatschools.org/school/rating.page?state=DE&id=442&s_cid=gsapi",
        "reviewsLink": "https://www.greatschools.org/school/parentReviews.page?state=DE&id=442&s_cid=gsapi",
        "schoolStatsLink": "https://www.greatschools.org/cgi-bin/DE/otherprivate/442"
      },
      {
        "gsId": "385",
        "name": "Delaware Military Academy",
        "type": "charter",
        "gradeRange": "9-12",
        "enrollment": "564",
        "gsRating": "8",
        "parentRating": "4",
        "city": "Wilmington",
        "state": "DE",
        "districtId": "41",
        "district": "Delaware Military Academy",
        "districtNCESId": "1000016",
        "address": "112 Middleboro Road, 
Wilmington, DE  19804",
        "phone": "(302) 998-0745",
        "fax": "(302) 998-3521",
        "website": "www.demilacad.org",
        "ncesId": "100001600143",
        "lat": "39.721615",
        "lon": "-75.58513",
        "overviewLink": "https://www.greatschools.org/delaware/wilmington/385-Delaware-Military-Academy/?s_cid=gsapi",
        "ratingsLink": "https://www.greatschools.org/school/rating.page?state=DE&id=385&s_cid=gsapi",
        "reviewsLink": "https://www.greatschools.org/school/parentReviews.page?state=DE&id=385&s_cid=gsapi",
        "schoolStatsLink": "https://www.greatschools.org/modperl/achievement/DE/385"
      },
      {
        "gsId": "149",
        "name": "Delcastle Technical High School",
        "type": "public",
        "gradeRange": "9-12",
        "enrollment": "1549",
        "gsRating": "6",
        "parentRating": "4",
        "city": "Wilmington",
        "state": "DE",
        "districtId": "21",
        "district": "New Castle County Vocational-Technical School District",
        "districtNCESId": "1001280",
        "address": "1417 Newport Road, 
Wilmington, DE  19804",
        "phone": "(302) 995-8100",
        "fax": "(302) 995-8197",
        "website": "delcastleths.com/",
        "ncesId": "100128000154",
        "lat": "39.72647",
        "lon": "-75.62709",
        "overviewLink": "https://www.greatschools.org/delaware/wilmington/149-Delcastle-Technical-High-School/?s_cid=gsapi",
        "ratingsLink": "https://www.greatschools.org/school/rating.page?state=DE&id=149&s_cid=gsapi",
        "reviewsLink": "https://www.greatschools.org/school/parentReviews.page?state=DE&id=149&s_cid=gsapi",
        "schoolStatsLink": "https://www.greatschools.org/modperl/achievement/DE/149"
      },
      {
        "gsId": "175",
        "name": "Dickinson (John) High School",
        "type": "public",
        "gradeRange": "6-12",
        "enrollment": "744",
        "gsRating": "3",
        "parentRating": "5",
        "city": "Wilmington",
        "state": "DE",
        "districtId": "22",
        "district": "Red Clay Consolidated School District",
        "districtNCESId": "1001300",
        "address": "1801 Milltown Road, 
Wilmington, DE  19808",
        "phone": "(302) 992-5500",
        "fax": "(302) 992-5506",
        "website": "www.edline.net/pages/rcdickinson",
        "ncesId": "100130000275",
        "lat": "39.72838",
        "lon": "-75.672745",
        "overviewLink": "https://www.greatschools.org/delaware/wilmington/175-Dickinson-(John)-High-School/?s_cid=gsapi",
        "ratingsLink": "https://www.greatschools.org/school/rating.page?state=DE&id=175&s_cid=gsapi",
        "reviewsLink": "https://www.greatschools.org/school/parentReviews.page?state=DE&id=175&s_cid=gsapi",
        "schoolStatsLink": "https://www.greatschools.org/modperl/achievement/DE/175"
      },
      {
        "gsId": "3",
        "name": "East Side Charter School",
        "type": "charter",
        "gradeRange": "K-8",
        "enrollment": "480",
        "gsRating": "5",
        "parentRating": "5",
        "city": "Wilmington",
        "state": "DE",
        "districtId": "6",
        "district": "East Side Charter School",
        "districtNCESId": "1000006",
        "address": "3000 North Claymont Street, 
Wilmington, DE  19802",
        "phone": "(302) 762-5834",
        "fax": "(302) 762-3864",
        "website": "www.escs.charter.k12.de.us",
        "ncesId": "100000600017",
        "lat": "39.75191",
        "lon": "-75.52229",
        "overviewLink": "https://www.greatschools.org/delaware/wilmington/3-East-Side-Charter-School/?s_cid=gsapi",
        "ratingsLink": "https://www.greatschools.org/school/rating.page?state=DE&id=3&s_cid=gsapi",
        "reviewsLink": "https://www.greatschools.org/school/parentReviews.page?state=DE&id=3&s_cid=gsapi",
        "schoolStatsLink": "https://www.greatschools.org/modperl/achievement/DE/3"
      },
      {
        "gsId": "304",
        "name": "Edison (Thomas A.) Charter School",
        "type": "charter",
        "gradeRange": "K-8",
        "enrollment": "758",
        "gsRating": "2",
        "parentRating": "5",
        "city": "Wilmington",
        "state": "DE",
        "districtId": "29",
        "district": "Edison (Thomas A.) Charter School",
        "districtNCESId": "1000010",
        "address": "2200 North Locust Street, 
Wilmington, DE  19802",
        "phone": "(302) 778-1101",
        "fax": "(302) 778-2232",
        "website": "www.thomasedison.charter.k12.de.us",
        "ncesId": "100001000079",
        "lat": "39.748142",
        "lon": "-75.53269",
        "overviewLink": "https://www.greatschools.org/delaware/wilmington/304-Edison-(Thomas-A.)-Charter-School/?s_cid=gsapi",
        "ratingsLink": "https://www.greatschools.org/school/rating.page?state=DE&id=304&s_cid=gsapi",
        "reviewsLink": "https://www.greatschools.org/school/parentReviews.page?state=DE&id=304&s_cid=gsapi",
        "schoolStatsLink": "https://www.greatschools.org/modperl/achievement/DE/304"
      },
      {
        "gsId": "73",
        "name": "Elbert-Palmer Elementary School",
        "type": "public",
        "gradeRange": "K-5",
        "enrollment": "228",
        "parentRating": "3",
        "city": "Wilmington",
        "state": "DE",
        "districtId": "12",
        "district": "Christina School District",
        "districtNCESId": "1000200",
        "address": "1210 Lobdell Street, 
Wilmington, DE  19801",
        "phone": "(302) 429-4188",
        "fax": "(302) 429-3957",
        "website": "www.elbertpalmeres.org",
        "ncesId": "100020000325",
        "lat": "39.73062",
        "lon": "-75.54149",
        "overviewLink": "https://www.greatschools.org/delaware/wilmington/73-Elbert-Palmer-Elementary-School/?s_cid=gsapi",
        "ratingsLink": "https://www.greatschools.org/school/rating.page?state=DE&id=73&s_cid=gsapi",
        "reviewsLink": "https://www.greatschools.org/school/parentReviews.page?state=DE&id=73&s_cid=gsapi",
        "schoolStatsLink": "https://www.greatschools.org/modperl/achievement/DE/73"
      },
      {
        "gsId": "331",
        "name": "Elementary Workshop Montessori School",
        "type": "private",
        "gradeRange": "PK-4",
        "enrollment": "60",
        "parentRating": "4",
        "city": "Wilmington",
        "state": "DE",
        "address": "502 North Pine Street, 
Wilmington, DE  19801",
        "phone": "(302) 656-1498",
        "fax": "(302) 656-1905",
        "website": "http://www.ElementaryWorkshop.org",
        "ncesId": "00249872",
        "lat": "39.738876",
        "lon": "-75.544426",
        "overviewLink": "https://www.greatschools.org/delaware/wilmington/331-Elementary-Workshop-Montessori-School/?s_cid=gsapi",
        "ratingsLink": "https://www.greatschools.org/school/rating.page?state=DE&id=331&s_cid=gsapi",
        "reviewsLink": "https://www.greatschools.org/school/parentReviews.page?state=DE&id=331&s_cid=gsapi",
        "schoolStatsLink": "https://www.greatschools.org/cgi-bin/DE/otherprivate/331"
      },
      {
        "gsId": "1209",
        "name": "First State Montessori Academy",
        "type": "charter",
        "gradeRange": "K-6",
        "enrollment": "325",
        "city": "Wilmington",
        "state": "DE",
        "address": "1000 North French Street, 
Wilmington, DE  19801",
        "phone": "(302) 576-1500",
        "fax": "(302) 576-1501",
        "website": "http://firststatemontessori.org/",
        "lat": "39.744793",
        "lon": "-75.5454",
        "overviewLink": "https://www.greatschools.org/delaware/wilmington/1209-First-State-Montessori-Academy/?s_cid=gsapi",
        "ratingsLink": "https://www.greatschools.org/school/rating.page?state=DE&id=1209&s_cid=gsapi",
        "reviewsLink": "https://www.greatschools.org/school/parentReviews.page?state=DE&id=1209&s_cid=gsapi",
        "schoolStatsLink": "https://www.greatschools.org/modperl/achievement/DE/1209"
      },
      {
        "gsId": "321",
        "name": "First State School",
        "type": "public",
        "gradeRange": "5-12",
        "enrollment": "24",
        "parentRating": "5",
        "city": "Wilmington",
        "state": "DE",
        "districtId": "22",
        "district": "Red Clay Consolidated School District",
        "districtNCESId": "1001300",
        "address": "501 West 14th Street, 
Wilmington, DE  19801",
        "phone": "(302) 428-5845",
        "website": "http://www.redclayschools.com/first",
        "ncesId": "100130000116",
        "lat": "39.75118",
        "lon": "-75.54992",
        "overviewLink": "https://www.greatschools.org/delaware/wilmington/321-First-State-School/?s_cid=gsapi",
        "ratingsLink": "https://www.greatschools.org/school/rating.page?state=DE&id=321&s_cid=gsapi",
        "reviewsLink": "https://www.greatschools.org/school/parentReviews.page?state=DE&id=321&s_cid=gsapi",
        "schoolStatsLink": "https://www.greatschools.org/modperl/achievement/DE/321"
      },
      {
        "gsId": "140",
        "name": "Forwood Elementary School",
        "type": "public",
        "gradeRange": "K-5",
        "enrollment": "393",
        "gsRating": "5",
        "parentRating": "4",
        "city": "Wilmington",
        "state": "DE",
        "districtId": "20",
        "district": "Brandywine School District",
        "districtNCESId": "1001240",
        "address": "1900 Westminster Drive, 
Wilmington, DE  19810",
        "phone": "(302) 475-3956",
        "fax": "(302) 529-3092",
        "website": "www.brandywineschools.org/forwood",
        "ncesId": "100124000288",
        "lat": "39.80632",
        "lon": "-75.50466",
        "overviewLink": "https://www.greatschools.org/delaware/wilmington/140-Forwood-Elementary-School/?s_cid=gsapi",
        "ratingsLink": "https://www.greatschools.org/school/rating.page?state=DE&id=140&s_cid=gsapi",
        "reviewsLink": "https://www.greatschools.org/school/parentReviews.page?state=DE&id=140&s_cid=gsapi",
        "schoolStatsLink": "https://www.greatschools.org/modperl/achievement/DE/140"
      },
      {
        "gsId": "1227",
        "name": "Freire Charter School",
        "type": "charter",
        "gradeRange": "8-9",
        "city": "Wilmington",
        "state": "DE",
        "address": "227 North Market Street, 
Wilmington, DE  19801",
        "phone": "(302) 521-0432",
        "fax": "(302) 368-3460",
        "website": "www.freirewilmington.org/",
        "lat": "39.739544",
        "lon": "-75.55208",
        "overviewLink": "https://www.greatschools.org/delaware/wilmington/1227-Freire-Charter-School/?s_cid=gsapi",
        "ratingsLink": "https://www.greatschools.org/school/rating.page?state=DE&id=1227&s_cid=gsapi",
        "reviewsLink": "https://www.greatschools.org/school/parentReviews.page?state=DE&id=1227&s_cid=gsapi",
        "schoolStatsLink": "https://www.greatschools.org/modperl/achievement/DE/1227"
      },
      {
        "gsId": "986",
        "name": "Gateway Lab School",
        "type": "charter",
        "gradeRange": "3-8",
        "enrollment": "212",
        "parentRating": "4",
        "city": "Wilmington",
        "state": "DE",
        "districtId": "55",
        "district": "Gateway Lab School",
        "districtNCESId": "1000052",
        "address": "2501 Centerville Road, 
Wilmington, DE  19808",
        "phone": "(302) 633-4091",
        "fax": "(302) 633-5680",
        "website": "www.gatewaylabschool.org",
        "ncesId": "100005200346",
        "lat": "39.74979",
        "lon": "-75.6256",
        "overviewLink": "https://www.greatschools.org/delaware/wilmington/986-Gateway-Lab-School/?s_cid=gsapi",
        "ratingsLink": "https://www.greatschools.org/school/rating.page?state=DE&id=986&s_cid=gsapi",
        "reviewsLink": "https://www.greatschools.org/school/parentReviews.page?state=DE&id=986&s_cid=gsapi",
        "schoolStatsLink": "https://www.greatschools.org/modperl/achievement/DE/986"
      },
      {
        "gsId": "296",
        "name": "Gospel Chur of God Deliverance",
        "type": "private",
        "gradeRange": "1-12",
        "city": "Wilmington",
        "state": "DE",
        "address": "203 Meadowbrooke Ave, 
Wilmington, DE  19804",
        "phone": "(302) 995-2289",
        "ncesId": "A9901083",
        "lat": "39.7245",
        "lon": "-75.6245",
        "overviewLink": "https://www.greatschools.org/delaware/wilmington/296-Gospel-Chur-Of-God-Deliverance/?s_cid=gsapi",
        "ratingsLink": "https://www.greatschools.org/school/rating.page?state=DE&id=296&s_cid=gsapi",
        "reviewsLink": "https://www.greatschools.org/school/parentReviews.page?state=DE&id=296&s_cid=gsapi",
        "schoolStatsLink": "https://www.greatschools.org/cgi-bin/DE/otherprivate/296"
      },
      {
        "gsId": "1226",
        "name": "Great Oaks Charter School ",
        "type": "charter",
        "gradeRange": "6",
        "enrollment": "200",
        "city": "Wilmington",
        "state": "DE",
        "address": "1200 North French Street, 
Wilmington, DE  19801",
        "phone": "(302) 332-6110",
        "website": "www.greatoakscharter.org/schools/wilmington",
        "lat": "39.74665",
        "lon": "-75.544624",
        "overviewLink": "https://www.greatschools.org/delaware/wilmington/1226-Great-Oaks-Charter-School-/?s_cid=gsapi",
        "ratingsLink": "https://www.greatschools.org/school/rating.page?state=DE&id=1226&s_cid=gsapi",
        "reviewsLink": "https://www.greatschools.org/school/parentReviews.page?state=DE&id=1226&s_cid=gsapi",
        "schoolStatsLink": "https://www.greatschools.org/modperl/achievement/DE/1226"
      },
      {
        "gsId": "144",
        "name": "Hanby Elementary School",
        "type": "public",
        "gradeRange": "K-5",
        "enrollment": "567",
        "gsRating": "6",
        "city": "Wilmington",
        "state": "DE",
        "districtId": "20",
        "district": "Brandywine School District",
        "districtNCESId": "1001240",
        "address": "2523 Berwyn Road, 
Wilmington, DE  19810",
        "phone": "(302) 479-2220",
        "fax": "(302) 479-2216",
        "website": "www.brandywineschools.org/hanby",
        "ncesId": "100124000293",
        "lat": "39.820732",
        "lon": "-75.52633",
        "overviewLink": "https://www.greatschools.org/delaware/wilmington/144-Hanby-Elementary-School/?s_cid=gsapi",
        "ratingsLink": "https://www.greatschools.org/school/rating.page?state=DE&id=144&s_cid=gsapi",
        "reviewsLink": "https://www.greatschools.org/school/parentReviews.page?state=DE&id=144&s_cid=gsapi",
        "schoolStatsLink": "https://www.greatschools.org/modperl/achievement/DE/144"
      },
      {
        "gsId": "139",
        "name": "Harlan (David W. ) Elementary School",
        "type": "public",
        "gradeRange": "K-5",
        "enrollment": "353",
        "gsRating": "2",
        "parentRating": "3",
        "city": "Wilmington",
        "state": "DE",
        "districtId": "20",
        "district": "Brandywine School District",
        "districtNCESId": "1001240",
        "address": "3601 North Jefferson Street, 
Wilmington, DE  19802",
        "phone": "(302) 762-7156",
        "fax": "(302) 762-7117",
        "website": "www.brandywineschools.org/harlan",
        "ncesId": "100124000285",
        "lat": "39.76298",
        "lon": "-75.52996",
        "overviewLink": "https://www.greatschools.org/delaware/wilmington/139-Harlan-(David-W.-)-Elementary-School/?s_cid=gsapi",
        "ratingsLink": "https://www.greatschools.org/school/rating.page?state=DE&id=139&s_cid=gsapi",
        "reviewsLink": "https://www.greatschools.org/school/parentReviews.page?state=DE&id=139&s_cid=gsapi",
        "schoolStatsLink": "https://www.greatschools.org/modperl/achievement/DE/139"
      },
      {
        "gsId": "996",
        "name": "Harvest Christian Academy - Wilmington",
        "type": "private",
        "gradeRange": "PK-7",
        "city": "Wilmington",
        "state": "DE",
        "address": "2205 Lancaster Avenue, 
Wilmington, DE  19805",
        "phone": "(302) 654-2613",
        "ncesId": "A0900712",
        "lat": "39.74798",
        "lon": "-75.57735",
        "overviewLink": "https://www.greatschools.org/delaware/wilmington/996-Harvest-Christian-Academy---Wilmington/?s_cid=gsapi",
        "ratingsLink": "https://www.greatschools.org/school/rating.page?state=DE&id=996&s_cid=gsapi",
        "reviewsLink": "https://www.greatschools.org/school/parentReviews.page?state=DE&id=996&s_cid=gsapi",
        "schoolStatsLink": "https://www.greatschools.org/cgi-bin/DE/otherprivate/996"
      },
      {
        "gsId": "165",
        "name": "Heritage Elementary School",
        "type": "public",
        "gradeRange": "K-5",
        "enrollment": "623",
        "gsRating": "4",
        "parentRating": "4",
        "city": "Wilmington",
        "state": "DE",
        "districtId": "22",
        "district": "Red Clay Consolidated School District",
        "districtNCESId": "1001300",
        "address": "2815 Highlands Lane, 
Wilmington, DE  19808",
        "phone": "(302) 454-3424",
        "fax": "(302) 454-3427",
        "website": "www.edline.net/pages/RCHeritage",
        "ncesId": "100130000262",
        "lat": "39.722656",
        "lon": "-75.685135",
        "overviewLink": "https://www.greatschools.org/delaware/wilmington/165-Heritage-Elementary-School/?s_cid=gsapi",
        "ratingsLink": "https://www.greatschools.org/school/rating.page?state=DE&id=165&s_cid=gsapi",
        "reviewsLink": "https://www.greatschools.org/school/parentReviews.page?state=DE&id=165&s_cid=gsapi",
        "schoolStatsLink": "https://www.greatschools.org/modperl/achievement/DE/165"
      },
      {
        "gsId": "955",
        "name": "High Road School Of Delaware",
        "type": "private",
        "gradeRange": "5-12",
        "city": "Wilmington",
        "state": "DE",
        "address": "2002 Rodman Road, 
Wilmington, DE  19805",
        "phone": "(302) 575-1266",
        "website": "https://www.catapultlearning.com/schools/high-road-school-delaware-wilmington/",
        "ncesId": "A0700402",
        "lat": "39.741104",
        "lon": "-75.58411",
        "overviewLink": "https://www.greatschools.org/delaware/wilmington/955-High-Road-School-Of-Delaware/?s_cid=gsapi",
        "ratingsLink": "https://www.greatschools.org/school/rating.page?state=DE&id=955&s_cid=gsapi",
        "reviewsLink": "https://www.greatschools.org/school/parentReviews.page?state=DE&id=955&s_cid=gsapi",
        "schoolStatsLink": "https://www.greatschools.org/cgi-bin/DE/otherprivate/955"
      },
      {
        "gsId": "164",
        "name": "Highlands Elementary School",
        "type": "public",
        "gradeRange": "K-5",
        "enrollment": "383",
        "gsRating": "1",
        "parentRating": "5",
        "city": "Wilmington",
        "state": "DE",
        "districtId": "22",
        "district": "Red Clay Consolidated School District",
        "districtNCESId": "1001300",
        "address": "2100 Gilpin Avenue, 
Wilmington, DE  19806",
        "phone": "(302) 651-2715",
        "fax": "(302) 425-4599",
        "website": "www.highlands.redclay.k12.de.us",
        "ncesId": "100130000261",
        "lat": "39.76204",
        "lon": "-75.56606",
        "overviewLink": "https://www.greatschools.org/delaware/wilmington/164-Highlands-Elementary-School/?s_cid=gsapi",
        "ratingsLink": "https://www.greatschools.org/school/rating.page?state=DE&id=164&s_cid=gsapi",
        "reviewsLink": "https://www.greatschools.org/school/parentReviews.page?state=DE&id=164&s_cid=gsapi",
        "schoolStatsLink": "https://www.greatschools.org/modperl/achievement/DE/164"
      },
      {
        "gsId": "151",
        "name": "Howard High School of Technology",
        "type": "public",
        "gradeRange": "9-12",
        "enrollment": "899",
        "gsRating": "6",
        "parentRating": "4",
        "city": "Wilmington",
        "state": "DE",
        "districtId": "21",
        "district": "New Castle County Vocational-Technical School District",
        "districtNCESId": "1001280",
        "address": "401 East 12th Street, 
Wilmington, DE  19801",
        "phone": "(302) 571-5400",
        "fax": "(302) 571-5843",
        "website": "www.howardhsde.com/",
        "ncesId": "100128000297",
        "lat": "39.74569",
        "lon": "-75.542595",
        "overviewLink": "https://www.greatschools.org/delaware/wilmington/151-Howard-High-School-Of-Technology/?s_cid=gsapi",
        "ratingsLink": "https://www.greatschools.org/school/rating.page?state=DE&id=151&s_cid=gsapi",
        "reviewsLink": "https://www.greatschools.org/school/parentReviews.page?state=DE&id=151&s_cid=gsapi",
        "schoolStatsLink": "https://www.greatschools.org/modperl/achievement/DE/151"
      },
      {
        "gsId": "210",
        "name": "Immaculate Heart Of Mary",
        "type": "private",
        "gradeRange": "PK-8",
        "parentRating": "5",
        "city": "Wilmington",
        "state": "DE",
        "address": "1000 Shipley Road, 
Wilmington, DE  19803",
        "phone": "(302) 764-0977",
        "ncesId": "00249475",
        "lat": "39.78155",
        "lon": "-75.5184",
        "overviewLink": "https://www.greatschools.org/delaware/wilmington/210-Immaculate-Heart-Of-Mary/?s_cid=gsapi",
        "ratingsLink": "https://www.greatschools.org/school/rating.page?state=DE&id=210&s_cid=gsapi",
        "reviewsLink": "https://www.greatschools.org/school/parentReviews.page?state=DE&id=210&s_cid=gsapi",
        "schoolStatsLink": "https://www.greatschools.org/cgi-bin/DE/otherprivate/210"
      },
      {
        "gsId": "313",
        "name": "Kuumba Academy Charter School",
        "type": "charter",
        "gradeRange": "K-8",
        "enrollment": "644",
        "gsRating": "7",
        "parentRating": "5",
        "city": "Wilmington",
        "state": "DE",
        "districtId": "34",
        "district": "Kuumba Academy Charter School",
        "districtNCESId": "1000014",
        "address": "1200 North French Street, 
Wilmington, DE  19801",
        "phone": "(302) 472-6450",
        "fax": "(302) 472-6452",
        "website": "kuumbaacademy.org",
        "ncesId": "100001400106",
        "lat": "39.74665",
        "lon": "-75.544624",
        "overviewLink": "https://www.greatschools.org/delaware/wilmington/313-Kuumba-Academy-Charter-School/?s_cid=gsapi",
        "ratingsLink": "https://www.greatschools.org/school/rating.page?state=DE&id=313&s_cid=gsapi",
        "reviewsLink": "https://www.greatschools.org/school/parentReviews.page?state=DE&id=313&s_cid=gsapi",
        "schoolStatsLink": "https://www.greatschools.org/modperl/achievement/DE/313"
      },
      {
        "gsId": "138",
        "name": "Lancashire Elementary School",
        "type": "public",
        "gradeRange": "K-5",
        "enrollment": "531",
        "gsRating": "6",
        "parentRating": "5",
        "city": "Wilmington",
        "state": "DE",
        "districtId": "20",
        "district": "Brandywine School District",
        "districtNCESId": "1001240",
        "address": "2000 Naamans Road, 
Wilmington, DE  19810",
        "phone": "(302) 475-3990",
        "fax": "(302) 475-3999",
        "website": "www.brandywineschools.org/lancashire",
        "ncesId": "100124000283",
        "lat": "39.823116",
        "lon": "-75.49447",
        "overviewLink": "https://www.greatschools.org/delaware/wilmington/138-Lancashire-Elementary-School/?s_cid=gsapi",
        "ratingsLink": "https://www.greatschools.org/school/rating.page?state=DE&id=138&s_cid=gsapi",
        "reviewsLink": "https://www.greatschools.org/school/parentReviews.page?state=DE&id=138&s_cid=gsapi",
        "schoolStatsLink": "https://www.greatschools.org/modperl/achievement/DE/138"
      },
      {
        "gsId": "163",
        "name": "Lewis (William C.) Dual Language Elementary School",
        "type": "public",
        "gradeRange": "K-5",
        "enrollment": "467",
        "gsRating": "4",
        "parentRating": "5",
        "city": "Wilmington",
        "state": "DE",
        "districtId": "22",
        "district": "Red Clay Consolidated School District",
        "districtNCESId": "1001300",
        "address": "920 North Van Buren Street, 
Wilmington, DE  19806",
        "phone": "(302) 651-2695",
        "fax": "(302) 651-2759",
        "website": "www.edline.net/pages/RCLewis",
        "ncesId": "100130000258",
        "lat": "39.74957",
        "lon": "-75.558586",
        "overviewLink": "https://www.greatschools.org/delaware/wilmington/163-Lewis-(William-C.)-Dual-Language-Elementary-School/?s_cid=gsapi",
        "ratingsLink": "https://www.greatschools.org/school/rating.page?state=DE&id=163&s_cid=gsapi",
        "reviewsLink": "https://www.greatschools.org/school/parentReviews.page?state=DE&id=163&s_cid=gsapi",
        "schoolStatsLink": "https://www.greatschools.org/modperl/achievement/DE/163"
      },
      {
        "gsId": "179",
        "name": "Linden Hill Elementary School",
        "type": "public",
        "gradeRange": "K-5",
        "enrollment": "610",
        "gsRating": "9",
        "parentRating": "4",
        "city": "Wilmington",
        "state": "DE",
        "districtId": "22",
        "district": "Red Clay Consolidated School District",
        "districtNCESId": "1001300",
        "address": "3415 Skyline Drive, 
Wilmington, DE  19808",
        "phone": "(302) 454-3406",
        "fax": "(302) 454-3549",
        "website": "tunaruna.com/LindenEvents/",
        "ncesId": "100130000334",
        "lat": "39.733593",
        "lon": "-75.692764",
        "overviewLink": "https://www.greatschools.org/delaware/wilmington/179-Linden-Hill-Elementary-School/?s_cid=gsapi",
        "ratingsLink": "https://www.greatschools.org/school/rating.page?state=DE&id=179&s_cid=gsapi",
        "reviewsLink": "https://www.greatschools.org/school/parentReviews.page?state=DE&id=179&s_cid=gsapi",
        "schoolStatsLink": "https://www.greatschools.org/modperl/achievement/DE/179"
      },
      {
        "gsId": "137",
        "name": "Lombardy Elementary School",
        "type": "public",
        "gradeRange": "K-5",
        "enrollment": "519",
        "gsRating": "7",
        "parentRating": "5",
        "city": "Wilmington",
        "state": "DE",
        "districtId": "20",
        "district": "Brandywine School District",
        "districtNCESId": "1001240",
        "address": "412 Foulk Road, 
Wilmington, DE  19803",
        "phone": "(302) 762-7190",
        "fax": "(302) 762-7108",
        "website": "www.brandywineschools.org/lombardy",
        "ncesId": "100124000282",
        "lat": "39.78462",
        "lon": "-75.535416",
        "overviewLink": "https://www.greatschools.org/delaware/wilmington/137-Lombardy-Elementary-School/?s_cid=gsapi",
        "ratingsLink": "https://www.greatschools.org/school/rating.page?state=DE&id=137&s_cid=gsapi",
        "reviewsLink": "https://www.greatschools.org/school/parentReviews.page?state=DE&id=137&s_cid=gsapi",
        "schoolStatsLink": "https://www.greatschools.org/modperl/achievement/DE/137"
      },
      {
        "gsId": "162",
        "name": "Marbrook Elementary School",
        "type": "public",
        "gradeRange": "K-5",
        "enrollment": "484",
        "gsRating": "4",
        "parentRating": "5",
        "city": "Wilmington",
        "state": "DE",
        "districtId": "22",
        "district": "Red Clay Consolidated School District",
        "districtNCESId": "1001300",
        "address": "2101 Centerville Road, 
Wilmington, DE  19808",
        "phone": "(302) 992-5555",
        "fax": "(302) 892-3253",
        "website": "www.edline.net/pages/RCMarbrook",
        "ncesId": "100130000255",
        "lat": "39.74192",
        "lon": "-75.624695",
        "overviewLink": "https://www.greatschools.org/delaware/wilmington/162-Marbrook-Elementary-School/?s_cid=gsapi",
        "ratingsLink": "https://www.greatschools.org/school/rating.page?state=DE&id=162&s_cid=gsapi",
        "reviewsLink": "https://www.greatschools.org/school/parentReviews.page?state=DE&id=162&s_cid=gsapi",
        "schoolStatsLink": "https://www.greatschools.org/modperl/achievement/DE/162"
      },
      {
        "gsId": "174",
        "name": "McKean (Thomas) High School",
        "type": "public",
        "gradeRange": "9-12",
        "enrollment": "825",
        "parentRating": "4",
        "city": "Wilmington",
        "state": "DE",
        "districtId": "22",
        "district": "Red Clay Consolidated School District",
        "districtNCESId": "1001300",
        "address": "301 McKennans Church Road, 
Wilmington, DE  19808",
        "phone": "(302) 992-5520",
        "fax": "(302) 992-5525",
        "website": "www.mckeanhs.com",
        "ncesId": "100130000274",
        "lat": "39.757587",
        "lon": "-75.66553",
        "overviewLink": "https://www.greatschools.org/delaware/wilmington/174-McKean-(Thomas)-High-School/?s_cid=gsapi",
        "ratingsLink": "https://www.greatschools.org/school/rating.page?state=DE&id=174&s_cid=gsapi",
        "reviewsLink": "https://www.greatschools.org/school/parentReviews.page?state=DE&id=174&s_cid=gsapi",
        "schoolStatsLink": "https://www.greatschools.org/modperl/achievement/DE/174"
      },
      {
        "gsId": "161",
        "name": "Mote (Anna P.) Elementary School",
        "type": "public",
        "gradeRange": "K-5",
        "enrollment": "445",
        "gsRating": "2",
        "parentRating": "3",
        "city": "Wilmington",
        "state": "DE",
        "districtId": "22",
        "district": "Red Clay Consolidated School District",
        "districtNCESId": "1001300",
        "address": "2110 Edwards Avenue, 
Wilmington, DE  19808",
        "phone": "(302) 992-5565",
        "fax": "(302) 892-3251",
        "website": "www.edline.net/pages/RCMote",
        "ncesId": "100130000254",
        "lat": "39.73566",
        "lon": "-75.638336",
        "overviewLink": "https://www.greatschools.org/delaware/wilmington/161-Mote-(Anna-P.)-Elementary-School/?s_cid=gsapi",
        "ratingsLink": "https://www.greatschools.org/school/rating.page?state=DE&id=161&s_cid=gsapi",
        "reviewsLink": "https://www.greatschools.org/school/parentReviews.page?state=DE&id=161&s_cid=gsapi",
        "schoolStatsLink": "https://www.greatschools.org/modperl/achievement/DE/161"
      },
      {
        "gsId": "148",
        "name": "Mount Pleasant Elementary School",
        "type": "public",
        "gradeRange": "K-5",
        "enrollment": "760",
        "gsRating": "4",
        "parentRating": "5",
        "city": "Wilmington",
        "state": "DE",
        "districtId": "20",
        "district": "Brandywine School District",
        "districtNCESId": "1001240",
        "address": "500 Duncan Road, 
Wilmington, DE  19809",
        "phone": "(302) 762-7120",
        "fax": "(302) 762-7040",
        "website": "www.brandywineschools.org/Domain/703",
        "ncesId": "100124000318",
        "lat": "39.770508",
        "lon": "-75.49558",
        "overviewLink": "https://www.greatschools.org/delaware/wilmington/148-Mount-Pleasant-Elementary-School/?s_cid=gsapi",
        "ratingsLink": "https://www.greatschools.org/school/rating.page?state=DE&id=148&s_cid=gsapi",
        "reviewsLink": "https://www.greatschools.org/school/parentReviews.page?state=DE&id=148&s_cid=gsapi",
        "schoolStatsLink": "https://www.greatschools.org/modperl/achievement/DE/148"
      },
      {
        "gsId": "133",
        "name": "Mount Pleasant High School",
        "type": "public",
        "gradeRange": "9-12",
        "enrollment": "1108",
        "gsRating": "7",
        "parentRating": "4",
        "city": "Wilmington",
        "state": "DE",
        "districtId": "20",
        "district": "Brandywine School District",
        "districtNCESId": "1001240",
        "address": "5201 Washington Street, 
Wilmington, DE  19809",
        "phone": "(302) 762-7125",
        "fax": "(302) 762-7042",
        "website": "www.brandywineschools.org/mphs",
        "ncesId": "100124000246",
        "lat": "39.772873",
        "lon": "-75.50505",
        "overviewLink": "https://www.greatschools.org/delaware/wilmington/133-Mount-Pleasant-High-School/?s_cid=gsapi",
        "ratingsLink": "https://www.greatschools.org/school/rating.page?state=DE&id=133&s_cid=gsapi",
        "reviewsLink": "https://www.greatschools.org/school/parentReviews.page?state=DE&id=133&s_cid=gsapi",
        "schoolStatsLink": "https://www.greatschools.org/modperl/achievement/DE/133"
      },
      {
        "gsId": "944",
        "name": "Moyer (Maurice J.) Academy",
        "type": "charter",
        "gradeRange": "n/a",
        "parentRating": "2",
        "city": "Wilmington",
        "state": "DE",
        "districtId": "46",
        "district": "Moyer (Maurice J.) Academy",
        "districtNCESId": "1000023",
        "address": "610 East 17th Street, 
Wilmington, DE  19802",
        "phone": "(302) 428-9501",
        "fax": "(302) 428-9506",
        "website": "www.mauricejmoyeracademicinstitute.org",
        "ncesId": "100002300253",
        "lat": "39.7489",
        "lon": "-75.53723",
        "overviewLink": "https://www.greatschools.org/delaware/wilmington/944-Moyer-(Maurice-J.)-Academy/?s_cid=gsapi",
        "ratingsLink": "https://www.greatschools.org/school/rating.page?state=DE&id=944&s_cid=gsapi",
        "reviewsLink": "https://www.greatschools.org/school/parentReviews.page?state=DE&id=944&s_cid=gsapi",
        "schoolStatsLink": "https://www.greatschools.org/modperl/achievement/DE/944"
      },
      {
        "gsId": "437",
        "name": "Nativity Preparatory School Of Wilmington",
        "type": "private",
        "gradeRange": "5-8",
        "city": "Wilmington",
        "state": "DE",
        "address": "1515 Linden Street, 
Wilmington, DE  19805",
        "phone": "(302) 777-1015",
        "ncesId": "A0500905",
        "lat": "39.743095",
        "lon": "-75.57026",
        "overviewLink": "https://www.greatschools.org/delaware/wilmington/437-Nativity-Preparatory-School-Of-Wilmington/?s_cid=gsapi",
        "ratingsLink": "https://www.greatschools.org/school/rating.page?state=DE&id=437&s_cid=gsapi",
        "reviewsLink": "https://www.greatschools.org/school/parentReviews.page?state=DE&id=437&s_cid=gsapi",
        "schoolStatsLink": "https://www.greatschools.org/cgi-bin/DE/otherprivate/437"
      },
      {
        "gsId": "945",
        "name": "Odyssey Charter School",
        "type": "charter",
        "gradeRange": "K-8",
        "enrollment": "1161",
        "gsRating": "10",
        "parentRating": "5",
        "city": "Wilmington",
        "state": "DE",
        "districtId": "49",
        "district": "Odyssey Charter School",
        "districtNCESId": "1000026",
        "address": "4319 Lancaster Pike, 
Wilmington, DE  19805",
        "phone": "(302) 994-6490",
        "fax": "(888) 780-5962",
        "website": "www.odysseycharterschooldel.org",
        "ncesId": "100002600259",
        "lat": "39.748554",
        "lon": "-75.57636",
        "overviewLink": "https://www.greatschools.org/delaware/wilmington/945-Odyssey-Charter-School/?s_cid=gsapi",
        "ratingsLink": "https://www.greatschools.org/school/rating.page?state=DE&id=945&s_cid=gsapi",
        "reviewsLink": "https://www.greatschools.org/school/parentReviews.page?state=DE&id=945&s_cid=gsapi",
        "schoolStatsLink": "https://www.greatschools.org/modperl/achievement/DE/945"
      },
      {
        "gsId": "1231",
        "name": "PRIED Middle School",
        "type": "private",
        "gradeRange": "6-8",
        "enrollment": "12",
        "city": "Wilmington",
        "state": "DE",
        "address": "4412 Washington Blvd, 
Wilmington, DE  19802",
        "phone": "(302) 635-0705",
        "website": "http://priedmiddleschool.org",
        "lat": "39.766495",
        "lon": "-75.51984",
        "overviewLink": "https://www.greatschools.org/delaware/wilmington/1231-PRIED-Middle-School/?s_cid=gsapi",
        "ratingsLink": "https://www.greatschools.org/school/rating.page?state=DE&id=1231&s_cid=gsapi",
        "reviewsLink": "https://www.greatschools.org/school/parentReviews.page?state=DE&id=1231&s_cid=gsapi",
        "schoolStatsLink": "https://www.greatschools.org/cgi-bin/DE/otherprivate/1231"
      },
      {
        "gsId": "211",
        "name": "Padua Academy",
        "type": "private",
        "gradeRange": "9-12",
        "parentRating": "4",
        "city": "Wilmington",
        "state": "DE",
        "address": "905 North Broom Street, 
Wilmington, DE  19806",
        "phone": "(302) 421-3739",
        "website": "http://paduaacademy.org/",
        "ncesId": "00249486",
        "lat": "39.751312",
        "lon": "-75.56306",
        "overviewLink": "https://www.greatschools.org/delaware/wilmington/211-Padua-Academy/?s_cid=gsapi",
        "ratingsLink": "https://www.greatschools.org/school/rating.page?state=DE&id=211&s_cid=gsapi",
        "reviewsLink": "https://www.greatschools.org/school/parentReviews.page?state=DE&id=211&s_cid=gsapi",
        "schoolStatsLink": "https://www.greatschools.org/cgi-bin/DE/otherprivate/211"
      },
      {
        "gsId": "975",
        "name": "Prestige Academy",
        "type": "charter",
        "gradeRange": "5-8",
        "enrollment": "224",
        "parentRating": "3",
        "city": "Wilmington",
        "state": "DE",
        "districtId": "51",
        "district": "Prestige Academy",
        "districtNCESId": "1000048",
        "address": "1121 Thatcher Street, 
Wilmington, DE  19802",
        "phone": "(302) 762-3240",
        "fax": "(302) 762-4782",
        "website": "www.prestigeacademycs.org",
        "ncesId": "100004800338",
        "lat": "39.742565",
        "lon": "-75.536064",
        "overviewLink": "https://www.greatschools.org/delaware/wilmington/975-Prestige-Academy/?s_cid=gsapi",
        "ratingsLink": "https://www.greatschools.org/school/rating.page?state=DE&id=975&s_cid=gsapi",
        "reviewsLink": "https://www.greatschools.org/school/parentReviews.page?state=DE&id=975&s_cid=gsapi",
        "schoolStatsLink": "https://www.greatschools.org/modperl/achievement/DE/975"
      },
      {
        "gsId": "52",
        "name": "Pulaski (Casimir) Elementary School",
        "type": "public",
        "gradeRange": "K-5",
        "enrollment": "428",
        "gsRating": "2",
        "city": "Wilmington",
        "state": "DE",
        "districtId": "12",
        "district": "Christina School District",
        "districtNCESId": "1000200",
        "address": "1300 Cedar Street, 
Wilmington, DE  19805",
        "phone": "(302) 429-4136",
        "fax": "(302) 429-3955",
        "website": "www.pulaskies.org",
        "ncesId": "100020000220",
        "lat": "39.737076",
        "lon": "-75.571045",
        "overviewLink": "https://www.greatschools.org/delaware/wilmington/52-Pulaski-(Casimir)-Elementary-School/?s_cid=gsapi",
        "ratingsLink": "https://www.greatschools.org/school/rating.page?state=DE&id=52&s_cid=gsapi",
        "reviewsLink": "https://www.greatschools.org/school/parentReviews.page?state=DE&id=52&s_cid=gsapi",
        "schoolStatsLink": "https://www.greatschools.org/modperl/achievement/DE/52"
      },
      {
        "gsId": "86",
        "name": "Read (George) Middle School",
        "type": "public",
        "gradeRange": "6-8",
        "enrollment": "662",
        "gsRating": "6",
        "parentRating": "3",
        "city": "Wilmington Manor",
        "state": "DE",
        "districtId": "13",
        "district": "Colonial School District",
        "districtNCESId": "1000230",
        "address": "314 East Basin Road, 
Wilmington Manor, DE  19720",
        "phone": "(302) 323-2760",
        "fax": "(302) 323-2763",
        "website": "georgeread.colonial.k12.de.us/",
        "ncesId": "100023000206",
        "lat": "39.676495",
        "lon": "-75.58669",
        "overviewLink": "https://www.greatschools.org/delaware/wilmington-manor/86-Read-(George)-Middle-School/?s_cid=gsapi",
        "ratingsLink": "https://www.greatschools.org/school/rating.page?state=DE&id=86&s_cid=gsapi",
        "reviewsLink": "https://www.greatschools.org/school/parentReviews.page?state=DE&id=86&s_cid=gsapi",
        "schoolStatsLink": "https://www.greatschools.org/modperl/achievement/DE/86"
      },
      {
        "gsId": "160",
        "name": "Richardson Park Elementary School",
        "type": "public",
        "gradeRange": "K-5",
        "enrollment": "591",
        "gsRating": "2",
        "parentRating": "5",
        "city": "Wilmington",
        "state": "DE",
        "districtId": "22",
        "district": "Red Clay Consolidated School District",
        "districtNCESId": "1001300",
        "address": "16 Idella Avenue, 
Wilmington, DE  19804",
        "phone": "(302) 992-5570",
        "fax": "(302) 892-3255",
        "website": "www.edline.net/pages/RCRichardsonPark",
        "ncesId": "100130000252",
        "lat": "39.723286",
        "lon": "-75.590935",
        "overviewLink": "https://www.greatschools.org/delaware/wilmington/160-Richardson-Park-Elementary-School/?s_cid=gsapi",
        "ratingsLink": "https://www.greatschools.org/school/rating.page?state=DE&id=160&s_cid=gsapi",
        "reviewsLink": "https://www.greatschools.org/school/parentReviews.page?state=DE&id=160&s_cid=gsapi",
        "schoolStatsLink": "https://www.greatschools.org/modperl/achievement/DE/160"
      },
      {
        "gsId": "157",
        "name": "Richardson Park Learning Center",
        "type": "public",
        "gradeRange": "PK-5",
        "enrollment": "268",
        "parentRating": "3",
        "city": "Wilmington",
        "state": "DE",
        "districtId": "22",
        "district": "Red Clay Consolidated School District",
        "districtNCESId": "1001300",
        "address": "99 Middleboro Road, 
Wilmington, DE  19804",
        "phone": "(302) 992-5574",
        "fax": "(302) 995-5125",
        "website": "www.edline.net/pages/RCRPLC",
        "ncesId": "100130000248",
        "lat": "39.723248",
        "lon": "-75.590065",
        "overviewLink": "https://www.greatschools.org/delaware/wilmington/157-Richardson-Park-Learning-Center/?s_cid=gsapi",
        "ratingsLink": "https://www.greatschools.org/school/rating.page?state=DE&id=157&s_cid=gsapi",
        "reviewsLink": "https://www.greatschools.org/school/parentReviews.page?state=DE&id=157&s_cid=gsapi",
        "schoolStatsLink": "https://www.greatschools.org/modperl/achievement/DE/157"
      },
      {
        "gsId": "177",
        "name": "Richey Elementary School",
        "type": "public",
        "gradeRange": "K-5",
        "enrollment": "436",
        "gsRating": "2",
        "parentRating": "5",
        "city": "Wilmington",
        "state": "DE",
        "districtId": "22",
        "district": "Red Clay Consolidated School District",
        "districtNCESId": "1001300",
        "address": "105 East Highland Avenue, 
Wilmington, DE  19804",
        "phone": "(302) 992-5535",
        "fax": "(302) 892-3242",
        "website": "www.edline.net/pages/RCRichey",
        "ncesId": "100130000315",
        "lat": "39.71801",
        "lon": "-75.607956",
        "overviewLink": "https://www.greatschools.org/delaware/wilmington/177-Richey-Elementary-School/?s_cid=gsapi",
        "ratingsLink": "https://www.greatschools.org/school/rating.page?state=DE&id=177&s_cid=gsapi",
        "reviewsLink": "https://www.greatschools.org/school/parentReviews.page?state=DE&id=177&s_cid=gsapi",
        "schoolStatsLink": "https://www.greatschools.org/modperl/achievement/DE/177"
      },
      {
        "gsId": "289",
        "name": "Salesianum School",
        "type": "private",
        "gradeRange": "9-12",
        "parentRating": "5",
        "city": "Wilmington",
        "state": "DE",
        "address": "1801 North Broom Street, 
Wilmington, DE  19802",
        "phone": "(302) 654-2495",
        "website": "http://www.salesianum.org/",
        "ncesId": "00249497",
        "lat": "39.76197",
        "lon": "-75.54772",
        "overviewLink": "https://www.greatschools.org/delaware/wilmington/289-Salesianum-School/?s_cid=gsapi",
        "ratingsLink": "https://www.greatschools.org/school/rating.page?state=DE&id=289&s_cid=gsapi",
        "reviewsLink": "https://www.greatschools.org/school/parentReviews.page?state=DE&id=289&s_cid=gsapi",
        "schoolStatsLink": "https://www.greatschools.org/cgi-bin/DE/otherprivate/289"
      },
      {
        "gsId": "259",
        "name": "Sharon Temple Adventist Elementary School",
        "type": "private",
        "gradeRange": "K-4",
        "city": "Wilmington",
        "state": "DE",
        "address": "2001 North Washington Street, 
Wilmington, DE  19802",
        "phone": "(302) 428-0216",
        "ncesId": "01922294",
        "lat": "39.755177",
        "lon": "-75.5438",
        "overviewLink": "https://www.greatschools.org/delaware/wilmington/259-Sharon-Temple-Adventist-Elementary-School/?s_cid=gsapi",
        "ratingsLink": "https://www.greatschools.org/school/rating.page?state=DE&id=259&s_cid=gsapi",
        "reviewsLink": "https://www.greatschools.org/school/parentReviews.page?state=DE&id=259&s_cid=gsapi",
        "schoolStatsLink": "https://www.greatschools.org/cgi-bin/DE/otherprivate/259"
      },
      {
        "gsId": "156",
        "name": "Shortlidge (Evan G.) Academy",
        "type": "public",
        "gradeRange": "K-2",
        "enrollment": "421",
        "city": "Wilmington",
        "state": "DE",
        "districtId": "22",
        "district": "Red Clay Consolidated School District",
        "districtNCESId": "1001300",
        "address": "100 West 18th Street, 
Wilmington, DE  19802",
        "phone": "(302) 651-2710",
        "fax": "(302) 425-3385",
        "website": "www.edline.net/pages/RCShortlidge",
        "ncesId": "100130000219",
        "lat": "39.752125",
        "lon": "-75.545105",
        "overviewLink": "https://www.greatschools.org/delaware/wilmington/156-Shortlidge-(Evan-G.)-Academy/?s_cid=gsapi",
        "ratingsLink": "https://www.greatschools.org/school/rating.page?state=DE&id=156&s_cid=gsapi",
        "reviewsLink": "https://www.greatschools.org/school/parentReviews.page?state=DE&id=156&s_cid=gsapi",
        "schoolStatsLink": "https://www.greatschools.org/modperl/achievement/DE/156"
      },
      {
        "gsId": "169",
        "name": "Skyline Middle School",
        "type": "public",
        "gradeRange": "6-8",
        "enrollment": "898",
        "gsRating": "7",
        "parentRating": "5",
        "city": "Wilmington",
        "state": "DE",
        "districtId": "22",
        "district": "Red Clay Consolidated School District",
        "districtNCESId": "1001300",
        "address": "2900 Skyline Drive, 
Wilmington, DE  19808",
        "phone": "(302) 454-3410",
        "fax": "(302) 454-3541",
        "website": "www.edline.net/pages/RCSkyline",
        "ncesId": "100130000267",
        "lat": "39.724243",
        "lon": "-75.6873",
        "overviewLink": "https://www.greatschools.org/delaware/wilmington/169-Skyline-Middle-School/?s_cid=gsapi",
        "ratingsLink": "https://www.greatschools.org/school/rating.page?state=DE&id=169&s_cid=gsapi",
        "reviewsLink": "https://www.greatschools.org/school/parentReviews.page?state=DE&id=169&s_cid=gsapi",
        "schoolStatsLink": "https://www.greatschools.org/modperl/achievement/DE/169"
      },
      {
        "gsId": "128",
        "name": "Springer Middle School",
        "type": "public",
        "gradeRange": "6-8",
        "enrollment": "858",
        "gsRating": "5",
        "city": "Wilmington",
        "state": "DE",
        "districtId": "20",
        "district": "Brandywine School District",
        "districtNCESId": "1001240",
        "address": "2220 Shipley Road, 
Wilmington, DE  19803",
        "phone": "(302) 479-1621",
        "fax": "(302) 479-1628",
        "website": "www.brandywineschools.org/springer",
        "ncesId": "100124000009",
        "lat": "39.804752",
        "lon": "-75.53661",
        "overviewLink": "https://www.greatschools.org/delaware/wilmington/128-Springer-Middle-School/?s_cid=gsapi",
        "ratingsLink": "https://www.greatschools.org/school/rating.page?state=DE&id=128&s_cid=gsapi",
        "reviewsLink": "https://www.greatschools.org/school/parentReviews.page?state=DE&id=128&s_cid=gsapi",
        "schoolStatsLink": "https://www.greatschools.org/modperl/achievement/DE/128"
      },
      {
        "gsId": "212",
        "name": "St Ann School",
        "type": "private",
        "gradeRange": "PK-8",
        "parentRating": "4",
        "city": "Wilmington",
        "state": "DE",
        "address": "2006 Shallcross Avenue, 
Wilmington, DE  19806",
        "phone": "(302) 652-6567",
        "ncesId": "00249511",
        "lat": "39.7619",
        "lon": "-75.563385",
        "overviewLink": "https://www.greatschools.org/delaware/wilmington/212-St-Ann-School/?s_cid=gsapi",
        "ratingsLink": "https://www.greatschools.org/school/rating.page?state=DE&id=212&s_cid=gsapi",
        "reviewsLink": "https://www.greatschools.org/school/parentReviews.page?state=DE&id=212&s_cid=gsapi",
        "schoolStatsLink": "https://www.greatschools.org/cgi-bin/DE/otherprivate/212"
      },
      {
        "gsId": "213",
        "name": "St Anthony Of Padua Grade School",
        "type": "private",
        "gradeRange": "PK-8",
        "parentRating": "5",
        "city": "Wilmington",
        "state": "DE",
        "address": "1715 West 9th Street, 
Wilmington, DE  19805",
        "phone": "(302) 421-3743",
        "ncesId": "00249522",
        "lat": "39.752144",
        "lon": "-75.56672",
        "overviewLink": "https://www.greatschools.org/delaware/wilmington/213-St-Anthony-Of-Padua-Grade-School/?s_cid=gsapi",
        "ratingsLink": "https://www.greatschools.org/school/rating.page?state=DE&id=213&s_cid=gsapi",
        "reviewsLink": "https://www.greatschools.org/school/parentReviews.page?state=DE&id=213&s_cid=gsapi",
        "schoolStatsLink": "https://www.greatschools.org/cgi-bin/DE/otherprivate/213"
      },
      {
        "gsId": "215",
        "name": "St Edmond's Academy",
        "type": "private",
        "gradeRange": "PK-8",
        "city": "Wilmington",
        "state": "DE",
        "address": "2120 Veale Road, 
Wilmington, DE  19810",
        "phone": "(302) 475-5370",
        "fax": "(302) 475-2256",
        "ncesId": "00249544",
        "lat": "39.80328",
        "lon": "-75.48893",
        "overviewLink": "https://www.greatschools.org/delaware/wilmington/215-St-Edmond's-Academy/?s_cid=gsapi",
        "ratingsLink": "https://www.greatschools.org/school/rating.page?state=DE&id=215&s_cid=gsapi",
        "reviewsLink": "https://www.greatschools.org/school/parentReviews.page?state=DE&id=215&s_cid=gsapi",
        "schoolStatsLink": "https://www.greatschools.org/cgi-bin/DE/otherprivate/215"
      },
      {
        "gsId": "254",
        "name": "St Elizabeth Elementary School",
        "type": "private",
        "gradeRange": "PK-8",
        "enrollment": "260",
        "parentRating": "5",
        "city": "Wilmington",
        "state": "DE",
        "address": "1500 Cedar Street, 
Wilmington, DE  19805",
        "phone": "(302) 655-8208",
        "website": "www.sainteliz.org",
        "ncesId": "01604318",
        "lat": "39.738102",
        "lon": "-75.57272",
        "overviewLink": "https://www.greatschools.org/delaware/wilmington/254-St-Elizabeth-Elementary-School/?s_cid=gsapi",
        "ratingsLink": "https://www.greatschools.org/school/rating.page?state=DE&id=254&s_cid=gsapi",
        "reviewsLink": "https://www.greatschools.org/school/parentReviews.page?state=DE&id=254&s_cid=gsapi",
        "schoolStatsLink": "https://www.greatschools.org/cgi-bin/DE/otherprivate/254"
      },
      {
        "gsId": "217",
        "name": "St John The Beloved School",
        "type": "private",
        "gradeRange": "PK-8",
        "parentRating": "3",
        "city": "Wilmington",
        "state": "DE",
        "address": "905 Milltown Road, 
Wilmington, DE  19808",
        "phone": "(302) 998-5525",
        "ncesId": "00249566",
        "lat": "39.734406",
        "lon": "-75.6568",
        "overviewLink": "https://www.greatschools.org/delaware/wilmington/217-St-John-The-Beloved-School/?s_cid=gsapi",
        "ratingsLink": "https://www.greatschools.org/school/rating.page?state=DE&id=217&s_cid=gsapi",
        "reviewsLink": "https://www.greatschools.org/school/parentReviews.page?state=DE&id=217&s_cid=gsapi",
        "schoolStatsLink": "https://www.greatschools.org/cgi-bin/DE/otherprivate/217"
      },
      {
        "gsId": "218",
        "name": "St Mark's High School",
        "type": "private",
        "gradeRange": "9-12",
        "parentRating": "5",
        "city": "Wilmington",
        "state": "DE",
        "address": "2501 Pike Creek Road, 
Wilmington, DE  19808",
        "phone": "(302) 757-8704",
        "ncesId": "00249577",
        "lat": "39.712772",
        "lon": "-75.68383",
        "overviewLink": "https://www.greatschools.org/delaware/wilmington/218-St-Mark's-High-School/?s_cid=gsapi",
        "ratingsLink": "https://www.greatschools.org/school/rating.page?state=DE&id=218&s_cid=gsapi",
        "reviewsLink": "https://www.greatschools.org/school/parentReviews.page?state=DE&id=218&s_cid=gsapi",
        "schoolStatsLink": "https://www.greatschools.org/cgi-bin/DE/otherprivate/218"
      },
      {
        "gsId": "219",
        "name": "St Mary Magdalen School",
        "type": "private",
        "gradeRange": "PK-8",
        "parentRating": "4",
        "city": "Wilmington",
        "state": "DE",
        "address": "9 Sharpley Road, 
Wilmington, DE  19803",
        "phone": "(302) 656-2745",
        "website": "http://www.smmschoolde.com/",
        "ncesId": "00249588",
        "lat": "39.793705",
        "lon": "-75.548485",
        "overviewLink": "https://www.greatschools.org/delaware/wilmington/219-St-Mary-Magdalen-School/?s_cid=gsapi",
        "ratingsLink": "https://www.greatschools.org/school/rating.page?state=DE&id=219&s_cid=gsapi",
        "reviewsLink": "https://www.greatschools.org/school/parentReviews.page?state=DE&id=219&s_cid=gsapi",
        "schoolStatsLink": "https://www.greatschools.org/cgi-bin/DE/otherprivate/219"
      },
      {
        "gsId": "351",
        "name": "St Michael's School & Nursery",
        "type": "private",
        "gradeRange": "PK-1",
        "city": "Wilmington",
        "state": "DE",
        "address": "700 North Walnut Street, 
Wilmington, DE  19801",
        "phone": "(302) 656-3389",
        "ncesId": "K9301182",
        "lat": "39.741524",
        "lon": "-75.54707",
        "overviewLink": "https://www.greatschools.org/delaware/wilmington/351-St-Michael's-School-&-Nursery/?s_cid=gsapi",
        "ratingsLink": "https://www.greatschools.org/school/rating.page?state=DE&id=351&s_cid=gsapi",
        "reviewsLink": "https://www.greatschools.org/school/parentReviews.page?state=DE&id=351&s_cid=gsapi",
        "schoolStatsLink": "https://www.greatschools.org/cgi-bin/DE/otherprivate/351"
      },
      {
        "gsId": "222",
        "name": "St Peter Cathedral School",
        "type": "private",
        "gradeRange": "PK-8",
        "parentRating": "5",
        "city": "Wilmington",
        "state": "DE",
        "address": "310 West 6th Street, 
Wilmington, DE  19801",
        "phone": "(302) 656-5234",
        "website": "http://www.stpetercathedralschool.org/index.html",
        "ncesId": "00249613",
        "lat": "39.742847",
        "lon": "-75.552605",
        "overviewLink": "https://www.greatschools.org/delaware/wilmington/222-St-Peter-Cathedral-School/?s_cid=gsapi",
        "ratingsLink": "https://www.greatschools.org/school/rating.page?state=DE&id=222&s_cid=gsapi",
        "reviewsLink": "https://www.greatschools.org/school/parentReviews.page?state=DE&id=222&s_cid=gsapi",
        "schoolStatsLink": "https://www.greatschools.org/cgi-bin/DE/otherprivate/222"
      },
      {
        "gsId": "214",
        "name": "St. Catherine of Siena School",
        "type": "private",
        "gradeRange": "PK-8",
        "parentRating": "5",
        "city": "Wilmington",
        "state": "DE",
        "address": "2501 Centerville Road, 
Wilmington, DE  19808",
        "phone": "(302) 633-4901",
        "ncesId": "00249533",
        "lat": "39.7493",
        "lon": "-75.6242",
        "overviewLink": "https://www.greatschools.org/delaware/wilmington/214-St.-Catherine-Of-Siena-School/?s_cid=gsapi",
        "ratingsLink": "https://www.greatschools.org/school/rating.page?state=DE&id=214&s_cid=gsapi",
        "reviewsLink": "https://www.greatschools.org/school/parentReviews.page?state=DE&id=214&s_cid=gsapi",
        "schoolStatsLink": "https://www.greatschools.org/cgi-bin/DE/otherprivate/214"
      },
      {
        "gsId": "255",
        "name": "St. Elizabeth High School",
        "type": "private",
        "gradeRange": "9-12",
        "parentRating": "5",
        "city": "Wilmington",
        "state": "DE",
        "address": "1500 Cedar St, 
Wilmington, DE  19805",
        "phone": "(302) 656-3369",
        "ncesId": "01604362",
        "lat": "39.738113",
        "lon": "-75.572716",
        "overviewLink": "https://www.greatschools.org/delaware/wilmington/255-St.-Elizabeth-High-School/?s_cid=gsapi",
        "ratingsLink": "https://www.greatschools.org/school/rating.page?state=DE&id=255&s_cid=gsapi",
        "reviewsLink": "https://www.greatschools.org/school/parentReviews.page?state=DE&id=255&s_cid=gsapi",
        "schoolStatsLink": "https://www.greatschools.org/cgi-bin/DE/otherprivate/255"
      },
      {
        "gsId": "216",
        "name": "St. Hedwig Elementary School",
        "type": "private",
        "gradeRange": "PK-8",
        "city": "Wilmington",
        "state": "DE",
        "address": "304 S Harrison Street, 
Wilmington, DE  19805",
        "phone": "(302) 594-1402",
        "ncesId": "00249555",
        "lat": "39.741188",
        "lon": "-75.565674",
        "overviewLink": "https://www.greatschools.org/delaware/wilmington/216-St.-Hedwig-Elementary-School/?s_cid=gsapi",
        "ratingsLink": "https://www.greatschools.org/school/rating.page?state=DE&id=216&s_cid=gsapi",
        "reviewsLink": "https://www.greatschools.org/school/parentReviews.page?state=DE&id=216&s_cid=gsapi",
        "schoolStatsLink": "https://www.greatschools.org/cgi-bin/DE/otherprivate/216"
      },
      {
        "gsId": "226",
        "name": "St. Helena School",
        "type": "private",
        "gradeRange": "PK-8",
        "city": "Wilmington",
        "state": "DE",
        "address": "210 Bellefonte Ave, 
Wilmington, DE  19809",
        "phone": "(302) 762-5595",
        "ncesId": "00249668",
        "lat": "39.769146",
        "lon": "-75.50237",
        "overviewLink": "https://www.greatschools.org/delaware/wilmington/226-St.-Helena-School/?s_cid=gsapi",
        "ratingsLink": "https://www.greatschools.org/school/rating.page?state=DE&id=226&s_cid=gsapi",
        "reviewsLink": "https://www.greatschools.org/school/parentReviews.page?state=DE&id=226&s_cid=gsapi",
        "schoolStatsLink": "https://www.greatschools.org/cgi-bin/DE/otherprivate/226"
      },
      {
        "gsId": "221",
        "name": "St. Paul Elementary School",
        "type": "private",
        "gradeRange": "PK-8",
        "city": "Wilmington",
        "state": "DE",
        "address": "312 N Van Buren St, 
Wilmington, DE  19805",
        "phone": "(302) 656-1372",
        "ncesId": "00249602",
        "lat": "39.7442",
        "lon": "-75.56224",
        "overviewLink": "https://www.greatschools.org/delaware/wilmington/221-St.-Paul-Elementary-School/?s_cid=gsapi",
        "ratingsLink": "https://www.greatschools.org/school/rating.page?state=DE&id=221&s_cid=gsapi",
        "reviewsLink": "https://www.greatschools.org/school/parentReviews.page?state=DE&id=221&s_cid=gsapi",
        "schoolStatsLink": "https://www.greatschools.org/cgi-bin/DE/otherprivate/221"
      },
      {
        "gsId": "223",
        "name": "St. Thomas the Apostle",
        "type": "private",
        "gradeRange": "PK-8",
        "city": "Wilmington",
        "state": "DE",
        "address": "201 Bayard Ave, 
Wilmington, DE  19805",
        "phone": "(302) 654-0746",
        "ncesId": "00249624",
        "lat": "39.748577",
        "lon": "-75.57633",
        "overviewLink": "https://www.greatschools.org/delaware/wilmington/223-St.-Thomas-The-Apostle/?s_cid=gsapi",
        "ratingsLink": "https://www.greatschools.org/school/rating.page?state=DE&id=223&s_cid=gsapi",
        "reviewsLink": "https://www.greatschools.org/school/parentReviews.page?state=DE&id=223&s_cid=gsapi",
        "schoolStatsLink": "https://www.greatschools.org/cgi-bin/DE/otherprivate/223"
      },
      {
        "gsId": "168",
        "name": "Stanton Middle School",
        "type": "public",
        "gradeRange": "6-8",
        "enrollment": "719",
        "gsRating": "3",
        "parentRating": "4",
        "city": "Wilmington",
        "state": "DE",
        "districtId": "22",
        "district": "Red Clay Consolidated School District",
        "districtNCESId": "1001300",
        "address": "1800 Limestone Road, 
Wilmington, DE  19804",
        "phone": "(302) 992-5540",
        "fax": "(302) 992-5586",
        "website": "www.edline.net/pages/RCStanton",
        "ncesId": "100130000266",
        "lat": "39.714317",
        "lon": "-75.65112",
        "overviewLink": "https://www.greatschools.org/delaware/wilmington/168-Stanton-Middle-School/?s_cid=gsapi",
        "ratingsLink": "https://www.greatschools.org/school/rating.page?state=DE&id=168&s_cid=gsapi",
        "reviewsLink": "https://www.greatschools.org/school/parentReviews.page?state=DE&id=168&s_cid=gsapi",
        "schoolStatsLink": "https://www.greatschools.org/modperl/achievement/DE/168"
      },
      {
        "gsId": "50",
        "name": "Stubbs (Frederick Douglass) Elementary School",
        "type": "public",
        "gradeRange": "K-5",
        "enrollment": "321",
        "parentRating": "1",
        "city": "Wilmington",
        "state": "DE",
        "districtId": "12",
        "district": "Christina School District",
        "districtNCESId": "1000200",
        "address": "1100 North Pine Street, 
Wilmington, DE  19801",
        "phone": "(302) 429-4175",
        "fax": "(302) 429-3958",
        "website": "www.stubbses.org",
        "ncesId": "100020000217",
        "lat": "39.744255",
        "lon": "-75.54036",
        "overviewLink": "https://www.greatschools.org/delaware/wilmington/50-Stubbs-(Frederick-Douglass)-Elementary-School/?s_cid=gsapi",
        "ratingsLink": "https://www.greatschools.org/school/rating.page?state=DE&id=50&s_cid=gsapi",
        "reviewsLink": "https://www.greatschools.org/school/parentReviews.page?state=DE&id=50&s_cid=gsapi",
        "schoolStatsLink": "https://www.greatschools.org/modperl/achievement/DE/50"
      },
      {
        "gsId": "145",
        "name": "Talley Middle School",
        "type": "public",
        "gradeRange": "6-8",
        "enrollment": "714",
        "gsRating": "3",
        "parentRating": "5",
        "city": "Wilmington",
        "state": "DE",
        "districtId": "20",
        "district": "Brandywine School District",
        "districtNCESId": "1001240",
        "address": "1110 Cypress Road, 
Wilmington, DE  19810",
        "phone": "(302) 475-3976",
        "fax": "(302) 475-3998",
        "website": "www.brandywineschools.org/talley",
        "ncesId": "100124000294",
        "lat": "39.822887",
        "lon": "-75.47241",
        "overviewLink": "https://www.greatschools.org/delaware/wilmington/145-Talley-Middle-School/?s_cid=gsapi",
        "ratingsLink": "https://www.greatschools.org/school/rating.page?state=DE&id=145&s_cid=gsapi",
        "reviewsLink": "https://www.greatschools.org/school/parentReviews.page?state=DE&id=145&s_cid=gsapi",
        "schoolStatsLink": "https://www.greatschools.org/modperl/achievement/DE/145"
      },
      {
        "gsId": "1211",
        "name": "The Delaware Met",
        "type": "charter",
        "gradeRange": "9-10",
        "city": "Wilmington",
        "state": "DE",
        "address": "100 West 10th Street, 
Wilmington, DE  19801",
        "phone": "(302) 660-3938",
        "fax": "(302) 368-3460",
        "website": "www.thedelawaremet.org",
        "lat": "39.745728",
        "lon": "-75.548836",
        "overviewLink": "https://www.greatschools.org/delaware/wilmington/1211-The-Delaware-Met/?s_cid=gsapi",
        "ratingsLink": "https://www.greatschools.org/school/rating.page?state=DE&id=1211&s_cid=gsapi",
        "reviewsLink": "https://www.greatschools.org/school/parentReviews.page?state=DE&id=1211&s_cid=gsapi",
        "schoolStatsLink": "https://www.greatschools.org/modperl/achievement/DE/1211"
      },
      {
        "gsId": "231",
        "name": "The Pilot School",
        "type": "private",
        "gradeRange": "n/a",
        "parentRating": "5",
        "city": "Wilmington",
        "state": "DE",
        "address": "208 Woodlawn Road, 
Wilmington, DE  19803",
        "phone": "(302) 478-1740",
        "fax": "(302) 478-1746",
        "website": "http://www.pilotschool.org",
        "ncesId": "00249792",
        "lat": "39.81894",
        "lon": "-75.555305",
        "overviewLink": "https://www.greatschools.org/delaware/wilmington/231-The-Pilot-School/?s_cid=gsapi",
        "ratingsLink": "https://www.greatschools.org/school/rating.page?state=DE&id=231&s_cid=gsapi",
        "reviewsLink": "https://www.greatschools.org/school/parentReviews.page?state=DE&id=231&s_cid=gsapi",
        "schoolStatsLink": "https://www.greatschools.org/cgi-bin/DE/otherprivate/231"
      },
      {
        "gsId": "965",
        "name": "The Tatnall School",
        "type": "private",
        "gradeRange": "PK-12",
        "parentRating": "5",
        "city": "Wilmington",
        "state": "DE",
        "address": "1501 Barley Mill Road, 
Wilmington, DE  19807",
        "phone": "(302) 998-2292",
        "website": "http://www.tatnall.org/",
        "ncesId": "00249828",
        "lat": "39.767628",
        "lon": "-75.6153",
        "overviewLink": "https://www.greatschools.org/delaware/wilmington/965-The-Tatnall-School/?s_cid=gsapi",
        "ratingsLink": "https://www.greatschools.org/school/rating.page?state=DE&id=965&s_cid=gsapi",
        "reviewsLink": "https://www.greatschools.org/school/parentReviews.page?state=DE&id=965&s_cid=gsapi",
        "schoolStatsLink": "https://www.greatschools.org/cgi-bin/DE/otherprivate/965"
      },
      {
        "gsId": "235",
        "name": "Tower Hill School",
        "type": "private",
        "gradeRange": "PK-12",
        "parentRating": "5",
        "city": "Wilmington",
        "state": "DE",
        "address": "2813 West 17th Street, 
Wilmington, DE  19806",
        "phone": "(302) 657-8360",
        "website": "http://www.towerhill.org/",
        "ncesId": "00249861",
        "lat": "39.764717",
        "lon": "-75.577354",
        "overviewLink": "https://www.greatschools.org/delaware/wilmington/235-Tower-Hill-School/?s_cid=gsapi",
        "ratingsLink": "https://www.greatschools.org/school/rating.page?state=DE&id=235&s_cid=gsapi",
        "reviewsLink": "https://www.greatschools.org/school/parentReviews.page?state=DE&id=235&s_cid=gsapi",
        "schoolStatsLink": "https://www.greatschools.org/cgi-bin/DE/otherprivate/235"
      },
      {
        "gsId": "402",
        "name": "Tutor Time Learning Centers",
        "type": "private",
        "gradeRange": "K",
        "city": "Wilmington",
        "state": "DE",
        "address": "5305 Limestone Road, 
Wilmington, DE  19808",
        "phone": "(302) 235-5701",
        "ncesId": "A0900733",
        "lat": "39.743668",
        "lon": "-75.6921",
        "overviewLink": "https://www.greatschools.org/delaware/wilmington/402-Tutor-Time-Learning-Centers/?s_cid=gsapi",
        "ratingsLink": "https://www.greatschools.org/school/rating.page?state=DE&id=402&s_cid=gsapi",
        "reviewsLink": "https://www.greatschools.org/school/parentReviews.page?state=DE&id=402&s_cid=gsapi",
        "schoolStatsLink": "https://www.greatschools.org/cgi-bin/DE/otherprivate/402"
      },
      {
        "gsId": "1004",
        "name": "Urban Promise School",
        "type": "private",
        "gradeRange": "PK-8",
        "city": "Wilmington",
        "state": "DE",
        "address": "2401 Thatcher Street, 
Wilmington, DE  19802",
        "phone": "(302) 425-5502",
        "ncesId": "A0900734",
        "lat": "39.749516",
        "lon": "-75.530464",
        "overviewLink": "https://www.greatschools.org/delaware/wilmington/1004-Urban-Promise-School/?s_cid=gsapi",
        "ratingsLink": "https://www.greatschools.org/school/rating.page?state=DE&id=1004&s_cid=gsapi",
        "reviewsLink": "https://www.greatschools.org/school/parentReviews.page?state=DE&id=1004&s_cid=gsapi",
        "schoolStatsLink": "https://www.greatschools.org/cgi-bin/DE/otherprivate/1004"
      },
      {
        "gsId": "224",
        "name": "Ursuline Academy",
        "type": "private",
        "gradeRange": "PK-12",
        "enrollment": "510",
        "parentRating": "4",
        "city": "Wilmington",
        "state": "DE",
        "address": "1106 Pennsylvania Avenue, 
Wilmington, DE  19806",
        "phone": "(302) 658-7158",
        "fax": "(302) 658-4297",
        "website": "www.ursuline.org",
        "ncesId": "00249646",
        "lat": "39.7528",
        "lon": "-75.5578",
        "overviewLink": "https://www.greatschools.org/delaware/wilmington/224-Ursuline-Academy/?s_cid=gsapi",
        "ratingsLink": "https://www.greatschools.org/school/rating.page?state=DE&id=224&s_cid=gsapi",
        "reviewsLink": "https://www.greatschools.org/school/parentReviews.page?state=DE&id=224&s_cid=gsapi",
        "schoolStatsLink": "https://www.greatschools.org/cgi-bin/DE/otherprivate/224"
      },
      {
        "gsId": "328",
        "name": "Ursuline Academy Lower",
        "type": "private",
        "gradeRange": "PK-6",
        "city": "Wilmington",
        "state": "DE",
        "address": "1106 Pennsylvania Avenue, 
Wilmington, DE  19806",
        "phone": "(302) 658-7158",
        "ncesId": "A0101683",
        "lat": "39.7528",
        "lon": "-75.5578",
        "overviewLink": "https://www.greatschools.org/delaware/wilmington/328-Ursuline-Academy-Lower/?s_cid=gsapi",
        "ratingsLink": "https://www.greatschools.org/school/rating.page?state=DE&id=328&s_cid=gsapi",
        "reviewsLink": "https://www.greatschools.org/school/parentReviews.page?state=DE&id=328&s_cid=gsapi",
        "schoolStatsLink": "https://www.greatschools.org/cgi-bin/DE/otherprivate/328"
      },
      {
        "gsId": "159",
        "name": "Warner Elementary School",
        "type": "public",
        "gradeRange": "PK, 3-5",
        "enrollment": "414",
        "gsRating": "1",
        "parentRating": "5",
        "city": "Wilmington",
        "state": "DE",
        "districtId": "22",
        "district": "Red Clay Consolidated School District",
        "districtNCESId": "1001300",
        "address": "801 West 18th Street, 
Wilmington, DE  19802",
        "phone": "(302) 651-2740",
        "fax": "(302) 651-2661",
        "website": "www.edline.net/pages/RCWarner",
        "ncesId": "100130000250",
        "lat": "39.758495",
        "lon": "-75.54859",
        "overviewLink": "https://www.greatschools.org/delaware/wilmington/159-Warner-Elementary-School/?s_cid=gsapi",
        "ratingsLink": "https://www.greatschools.org/school/rating.page?state=DE&id=159&s_cid=gsapi",
        "reviewsLink": "https://www.greatschools.org/school/parentReviews.page?state=DE&id=159&s_cid=gsapi",
        "schoolStatsLink": "https://www.greatschools.org/modperl/achievement/DE/159"
      },
      {
        "gsId": "227",
        "name": "Wilmington Friends School",
        "type": "private",
        "gradeRange": "PK-12",
        "enrollment": "765",
        "parentRating": "4",
        "city": "Wilmington",
        "state": "DE",
        "address": "101 School Road, 
Wilmington, DE  19803",
        "phone": "(302) 576-2909",
        "website": "http://www.wilmingtonfriends.org/",
        "ncesId": "00249715",
        "lat": "39.76799",
        "lon": "-75.55034",
        "overviewLink": "https://www.greatschools.org/delaware/wilmington/227-Wilmington-Friends-School/?s_cid=gsapi",
        "ratingsLink": "https://www.greatschools.org/school/rating.page?state=DE&id=227&s_cid=gsapi",
        "reviewsLink": "https://www.greatschools.org/school/parentReviews.page?state=DE&id=227&s_cid=gsapi",
        "schoolStatsLink": "https://www.greatschools.org/cgi-bin/DE/otherprivate/227"
      },
      {
        "gsId": "253",
        "name": "Wilmington Junior Academy",
        "type": "private",
        "gradeRange": "PK-8",
        "city": "Wilmington",
        "state": "DE",
        "address": "3001 Millcreek Rd, 
Wilmington, DE  19808",
        "phone": "(302) 998-0530",
        "ncesId": "00250254",
        "lat": "39.751225",
        "lon": "-75.666435",
        "overviewLink": "https://www.greatschools.org/delaware/wilmington/253-Wilmington-Junior-Academy/?s_cid=gsapi",
        "ratingsLink": "https://www.greatschools.org/school/rating.page?state=DE&id=253&s_cid=gsapi",
        "reviewsLink": "https://www.greatschools.org/school/parentReviews.page?state=DE&id=253&s_cid=gsapi",
        "schoolStatsLink": "https://www.greatschools.org/cgi-bin/DE/otherprivate/253"
      },
      {
        "gsId": "77",
        "name": "Wilmington Manor Elementary School",
        "type": "public",
        "gradeRange": "K-5",
        "enrollment": "355",
        "gsRating": "4",
        "city": "Wilmington Manor",
        "state": "DE",
        "districtId": "13",
        "district": "Colonial School District",
        "districtNCESId": "1000230",
        "address": "200 East Roosevelt Avenue, 
Wilmington Manor, DE  19720",
        "phone": "(302) 323-2901",
        "fax": "(302) 323-2908",
        "website": "wilmingtonmanor.colonial.k12.de.us/",
        "ncesId": "100023000197",
        "lat": "39.684017",
        "lon": "-75.58321",
        "overviewLink": "https://www.greatschools.org/delaware/wilmington-manor/77-Wilmington-Manor-Elementary-School/?s_cid=gsapi",
        "ratingsLink": "https://www.greatschools.org/school/rating.page?state=DE&id=77&s_cid=gsapi",
        "reviewsLink": "https://www.greatschools.org/school/parentReviews.page?state=DE&id=77&s_cid=gsapi",
        "schoolStatsLink": "https://www.greatschools.org/modperl/achievement/DE/77"
      },
      {
        "gsId": "286",
        "name": "Wilmington Montessori School",
        "type": "private",
        "gradeRange": "PK-6",
        "enrollment": "200",
        "parentRating": "5",
        "city": "Wilmington",
        "state": "DE",
        "address": "1400 Harvey Road, 
Wilmington, DE  19810",
        "phone": "(302) 475-0555",
        "fax": "(302) 230-0275",
        "website": "http://www.wmsde.org/",
        "ncesId": "AA001472",
        "lat": "39.803715",
        "lon": "-75.483",
        "overviewLink": "https://www.greatschools.org/delaware/wilmington/286-Wilmington-Montessori-School/?s_cid=gsapi",
        "ratingsLink": "https://www.greatschools.org/school/rating.page?state=DE&id=286&s_cid=gsapi",
        "reviewsLink": "https://www.greatschools.org/school/parentReviews.page?state=DE&id=286&s_cid=gsapi",
        "schoolStatsLink": "https://www.greatschools.org/cgi-bin/DE/otherprivate/286"
      },
      {
        "gsId": "176",
        "name": "duPont (Alexis I.) High School",
        "type": "public",
        "gradeRange": "9-12",
        "enrollment": "1093",
        "gsRating": "6",
        "parentRating": "3",
        "city": "Wilmington",
        "state": "DE",
        "districtId": "22",
        "district": "Red Clay Consolidated School District",
        "districtNCESId": "1001300",
        "address": "50 Hillside Road, 
Wilmington, DE  19807",
        "phone": "(302) 651-2626",
        "fax": "(302) 651-2757",
        "website": "www.aiduponthigh.redclay.k12.de.us",
        "ncesId": "100130000276",
        "lat": "39.77673",
        "lon": "-75.60036",
        "overviewLink": "https://www.greatschools.org/delaware/wilmington/176-DuPont-(Alexis-I.)-High-School/?s_cid=gsapi",
        "ratingsLink": "https://www.greatschools.org/school/rating.page?state=DE&id=176&s_cid=gsapi",
        "reviewsLink": "https://www.greatschools.org/school/parentReviews.page?state=DE&id=176&s_cid=gsapi",
        "schoolStatsLink": "https://www.greatschools.org/modperl/achievement/DE/176"
      },
      {
        "gsId": "172",
        "name": "duPont (Alexis I.) Middle School",
        "type": "public",
        "gradeRange": "6-8",
        "enrollment": "533",
        "gsRating": "4",
        "parentRating": "3",
        "city": "Wilmington",
        "state": "DE",
        "districtId": "22",
        "district": "Red Clay Consolidated School District",
        "districtNCESId": "1001300",
        "address": "3130 Kennett Pike, 
Wilmington, DE  19807",
        "phone": "(302) 651-2690",
        "fax": "(302) 425-4585",
        "website": "www.edline.net/pages/RCAIMS",
        "ncesId": "100130000272",
        "lat": "39.767372",
        "lon": "-75.58396",
        "overviewLink": "https://www.greatschools.org/delaware/wilmington/172-DuPont-(Alexis-I.)-Middle-School/?s_cid=gsapi",
        "ratingsLink": "https://www.greatschools.org/school/rating.page?state=DE&id=172&s_cid=gsapi",
        "reviewsLink": "https://www.greatschools.org/school/parentReviews.page?state=DE&id=172&s_cid=gsapi",
        "schoolStatsLink": "https://www.greatschools.org/modperl/achievement/DE/172"
      },
      {
        "gsId": "982",
        "name": "duPont (Pierre S.) Middle School",
        "type": "public",
        "gradeRange": "PK, 6-8",
        "enrollment": "904",
        "gsRating": "5",
        "parentRating": "5",
        "city": "Wilmington",
        "state": "DE",
        "districtId": "20",
        "district": "Brandywine School District",
        "districtNCESId": "1001240",
        "address": "701 West 34th Street, 
Wilmington, DE  19802",
        "phone": "(302) 762-7146",
        "fax": "(302) 762-7196",
        "website": "www.brandywineschools.org/psdupont",
        "ncesId": "100124000243",
        "lat": "39.76428",
        "lon": "-75.532974",
        "overviewLink": "https://www.greatschools.org/delaware/wilmington/982-DuPont-(Pierre-S.)-Middle-School/?s_cid=gsapi",
        "ratingsLink": "https://www.greatschools.org/school/rating.page?state=DE&id=982&s_cid=gsapi",
        "reviewsLink": "https://www.greatschools.org/school/parentReviews.page?state=DE&id=982&s_cid=gsapi",
        "schoolStatsLink": "https://www.greatschools.org/modperl/achievement/DE/982"
      }
    ]
  }
}